header: 
  seq: 26791
  stamp: 
    secs: 1693405729
    nsecs: 897180140
  frame_id: "map"
pose: 
  position: 
    x: -2.8135578632354736
    y: -0.6932045817375183
    z: 0.5134558081626892
  orientation: 
    x: 0.006058464473411184
    y: 0.012386682315160484
    z: 0.609172843527733
    w: 0.7929176210729121
---
header: 
  seq: 26792
  stamp: 
    secs: 1693405729
    nsecs: 926479182
  frame_id: "map"
pose: 
  position: 
    x: -2.81552791595459
    y: -0.6941191554069519
    z: 0.5120133757591248
  orientation: 
    x: 0.0032096212734389513
    y: 0.008650328074523957
    z: 0.6108458248841646
    w: 0.7916957992078959
---
header: 
  seq: 26793
  stamp: 
    secs: 1693405729
    nsecs: 956784667
  frame_id: "map"
pose: 
  position: 
    x: -2.817753314971924
    y: -0.6951518058776855
    z: 0.5100559592247009
  orientation: 
    x: 0.0009417183221643934
    y: 0.003848047337259194
    z: 0.6124152709902928
    w: 0.7905263070187477
---
header: 
  seq: 26794
  stamp: 
    secs: 1693405729
    nsecs: 996848058
  frame_id: "map"
pose: 
  position: 
    x: -2.820498466491699
    y: -0.6961658596992493
    z: 0.5070511698722839
  orientation: 
    x: -0.004006796809338408
    y: -0.007145991118517546
    z: 0.6142334424510181
    w: 0.7890818706816417
---
header: 
  seq: 26795
  stamp: 
    secs: 1693405730
    nsecs:  27102609
  frame_id: "map"
pose: 
  position: 
    x: -2.8228695392608643
    y: -0.6969785690307617
    z: 0.504194974899292
  orientation: 
    x: -0.005546472179755863
    y: -0.016389227319784046
    z: 0.615052906530234
    w: 0.7882959754823634
---
header: 
  seq: 26796
  stamp: 
    secs: 1693405730
    nsecs:  56395321
  frame_id: "map"
pose: 
  position: 
    x: -2.8249154090881348
    y: -0.6975972652435303
    z: 0.5019605159759521
  orientation: 
    x: -0.006046573347054047
    y: -0.024199231684828477
    z: 0.615557138426494
    w: 0.7876974256673022
---
header: 
  seq: 26797
  stamp: 
    secs: 1693405730
    nsecs:  96435308
  frame_id: "map"
pose: 
  position: 
    x: -2.827324628829956
    y: -0.698119580745697
    z: 0.49945759773254395
  orientation: 
    x: -0.004970042435040965
    y: -0.029309639760240185
    z: 0.6160297699502292
    w: 0.7871617354212059
---
header: 
  seq: 26798
  stamp: 
    secs: 1693405730
    nsecs: 127672735
  frame_id: "map"
pose: 
  position: 
    x: -2.8288233280181885
    y: -0.6981469988822937
    z: 0.4983311891555786
  orientation: 
    x: -0.00441312012726553
    y: -0.030055063174085527
    z: 0.6160003814861903
    w: 0.7871599323137054
---
header: 
  seq: 26799
  stamp: 
    secs: 1693405730
    nsecs: 156953161
  frame_id: "map"
pose: 
  position: 
    x: -2.8301589488983154
    y: -0.6978368163108826
    z: 0.4966612756252289
  orientation: 
    x: -0.004957644757044415
    y: -0.02782244015163832
    z: 0.6160184010694424
    w: 0.7872246901520592
---
header: 
  seq: 26800
  stamp: 
    secs: 1693405730
    nsecs: 197022244
  frame_id: "map"
pose: 
  position: 
    x: -2.8317673206329346
    y: -0.6970219016075134
    z: 0.49485287070274353
  orientation: 
    x: -0.006999068738750649
    y: -0.025809740188265182
    z: 0.6159596633140304
    w: 0.7873237095595285
---
header: 
  seq: 26801
  stamp: 
    secs: 1693405730
    nsecs: 227249513
  frame_id: "map"
pose: 
  position: 
    x: -2.832669734954834
    y: -0.6962566375732422
    z: 0.4938611090183258
  orientation: 
    x: -0.00541394902044576
    y: -0.02436719929023977
    z: 0.6161535192160948
    w: 0.7872304397318683
---
header: 
  seq: 26802
  stamp: 
    secs: 1693405730
    nsecs: 256511494
  frame_id: "map"
pose: 
  position: 
    x: -2.8329520225524902
    y: -0.6947027444839478
    z: 0.4930558502674103
  orientation: 
    x: -0.0028974685427688132
    y: -0.022135955594888585
    z: 0.6156449979117256
    w: 0.7877073643162285
---
header: 
  seq: 26803
  stamp: 
    secs: 1693405730
    nsecs: 296564730
  frame_id: "map"
pose: 
  position: 
    x: -2.8336918354034424
    y: -0.6926438808441162
    z: 0.4925611913204193
  orientation: 
    x: -0.0004068344451824887
    y: -0.01923952368877147
    z: 0.6149627042402843
    w: 0.7883213901602196
---
header: 
  seq: 26804
  stamp: 
    secs: 1693405730
    nsecs: 326847781
  frame_id: "map"
pose: 
  position: 
    x: -2.834556818008423
    y: -0.6909658312797546
    z: 0.4919067919254303
  orientation: 
    x: -0.0007524644431096046
    y: -0.015462148123855025
    z: 0.6145256952803723
    w: 0.7887449640658888
---
header: 
  seq: 26805
  stamp: 
    secs: 1693405730
    nsecs: 357031596
  frame_id: "map"
pose: 
  position: 
    x: -2.835549831390381
    y: -0.6892499923706055
    z: 0.4912617802619934
  orientation: 
    x: -0.0007636498131919383
    y: -0.009983293723498373
    z: 0.6141535403494245
    w: 0.7891230489142336
---
header: 
  seq: 26806
  stamp: 
    secs: 1693405730
    nsecs: 396989928
  frame_id: "map"
pose: 
  position: 
    x: -2.837043523788452
    y: -0.6862845420837402
    z: 0.48971742391586304
  orientation: 
    x: -0.002691834083633815
    y: -0.005854553436085166
    z: 0.6133481880345586
    w: 0.7897863490775859
---
header: 
  seq: 26807
  stamp: 
    secs: 1693405730
    nsecs: 426213284
  frame_id: "map"
pose: 
  position: 
    x: -2.838601589202881
    y: -0.6839284300804138
    z: 0.48803630471229553
  orientation: 
    x: -0.004648174349469934
    y: -0.004924223294891373
    z: 0.6128694023831286
    w: 0.7901551994715038
---
header: 
  seq: 26808
  stamp: 
    secs: 1693405730
    nsecs: 456423960
  frame_id: "map"
pose: 
  position: 
    x: -2.840298891067505
    y: -0.6817328929901123
    z: 0.4865723252296448
  orientation: 
    x: -0.006383789201907475
    y: -0.004299125456633616
    z: 0.6124423302856655
    w: 0.7904778029697643
---
header: 
  seq: 26809
  stamp: 
    secs: 1693405730
    nsecs: 496452562
  frame_id: "map"
pose: 
  position: 
    x: -2.8430755138397217
    y: -0.6782346367835999
    z: 0.4847736656665802
  orientation: 
    x: -0.009503354892663185
    y: -0.00544401429435569
    z: 0.6116707180820236
    w: 0.7910366667786315
---
header: 
  seq: 26810
  stamp: 
    secs: 1693405730
    nsecs: 526740687
  frame_id: "map"
pose: 
  position: 
    x: -2.845245361328125
    y: -0.6753453016281128
    z: 0.4832114577293396
  orientation: 
    x: -0.00967148992827878
    y: -0.006824005179044162
    z: 0.6108397548831289
    w: 0.791665806058784
---
header: 
  seq: 26811
  stamp: 
    secs: 1693405730
    nsecs: 556024469
  frame_id: "map"
pose: 
  position: 
    x: -2.84755802154541
    y: -0.6728577613830566
    z: 0.48212456703186035
  orientation: 
    x: -0.009313319298581675
    y: -0.009269584728919264
    z: 0.6103719479855229
    w: 0.7920059692086823
---
header: 
  seq: 26812
  stamp: 
    secs: 1693405730
    nsecs: 596065557
  frame_id: "map"
pose: 
  position: 
    x: -2.8506877422332764
    y: -0.6695163249969482
    z: 0.48094210028648376
  orientation: 
    x: -0.006885139659350136
    y: -0.01210653898882675
    z: 0.6098041486559426
    w: 0.7924297596237289
---
header: 
  seq: 26813
  stamp: 
    secs: 1693405730
    nsecs: 626355363
  frame_id: "map"
pose: 
  position: 
    x: -2.853405237197876
    y: -0.6670040488243103
    z: 0.4799478054046631
  orientation: 
    x: -0.007292560399094705
    y: -0.014133015677856605
    z: 0.6092365483696451
    w: 0.7928290596429061
---
header: 
  seq: 26814
  stamp: 
    secs: 1693405730
    nsecs: 656696895
  frame_id: "map"
pose: 
  position: 
    x: -2.856099843978882
    y: -0.6638612151145935
    z: 0.47923094034194946
  orientation: 
    x: -0.008139307139107646
    y: -0.013855153022806438
    z: 0.6090135845849847
    w: 0.7929970543606445
---
header: 
  seq: 26815
  stamp: 
    secs: 1693405730
    nsecs: 696802823
  frame_id: "map"
pose: 
  position: 
    x: -2.8590171337127686
    y: -0.6591832041740417
    z: 0.47876712679862976
  orientation: 
    x: -0.010677584109170805
    y: -0.01312452316127781
    z: 0.6089987144727753
    w: 0.7929907499747383
---
header: 
  seq: 26816
  stamp: 
    secs: 1693405730
    nsecs: 726119506
  frame_id: "map"
pose: 
  position: 
    x: -2.861358165740967
    y: -0.6557296514511108
    z: 0.4788675308227539
  orientation: 
    x: -0.01499418122523417
    y: -0.013330334878475354
    z: 0.6089619029903959
    w: 0.792945725242943
---
header: 
  seq: 26817
  stamp: 
    secs: 1693405730
    nsecs: 756414080
  frame_id: "map"
pose: 
  position: 
    x: -2.8641197681427
    y: -0.652249813079834
    z: 0.4787193536758423
  orientation: 
    x: -0.019640476728972952
    y: -0.014130343806636175
    z: 0.6091014264756462
    w: 0.7927231854707073
---
header: 
  seq: 26818
  stamp: 
    secs: 1693405730
    nsecs: 796485094
  frame_id: "map"
pose: 
  position: 
    x: -2.867403984069824
    y: -0.6477590203285217
    z: 0.4787886142730713
  orientation: 
    x: -0.025677745609835437
    y: -0.01710401798437985
    z: 0.6095691576915627
    w: 0.7921322982034109
---
header: 
  seq: 26819
  stamp: 
    secs: 1693405730
    nsecs: 826792977
  frame_id: "map"
pose: 
  position: 
    x: -2.86909818649292
    y: -0.6446632742881775
    z: 0.47975388169288635
  orientation: 
    x: -0.02814820867948308
    y: -0.01990570880317403
    z: 0.6101991200021205
    w: 0.7914976370373152
---
header: 
  seq: 26820
  stamp: 
    secs: 1693405730
    nsecs: 857111582
  frame_id: "map"
pose: 
  position: 
    x: -2.8708205223083496
    y: -0.6416056752204895
    z: 0.4806112051010132
  orientation: 
    x: -0.02876213473657945
    y: -0.022652840289110125
    z: 0.6111444695789724
    w: 0.7906719355918913
---
header: 
  seq: 26821
  stamp: 
    secs: 1693405730
    nsecs: 896235037
  frame_id: "map"
pose: 
  position: 
    x: -2.872708559036255
    y: -0.6382957100868225
    z: 0.4825611114501953
  orientation: 
    x: -0.025929590189102146
    y: -0.027707562797628635
    z: 0.6128053862942874
    w: 0.7893221848028338
---
header: 
  seq: 26822
  stamp: 
    secs: 1693405730
    nsecs: 926542381
  frame_id: "map"
pose: 
  position: 
    x: -2.8736259937286377
    y: -0.6357110738754272
    z: 0.4846324622631073
  orientation: 
    x: -0.021311643155365805
    y: -0.02759016929650024
    z: 0.6141498006976028
    w: 0.7884190811284326
---
header: 
  seq: 26823
  stamp: 
    secs: 1693405730
    nsecs: 956856731
  frame_id: "map"
pose: 
  position: 
    x: -2.8743183612823486
    y: -0.6333880424499512
    z: 0.48692527413368225
  orientation: 
    x: -0.01640476711316249
    y: -0.024253025157023538
    z: 0.6152691731624237
    w: 0.7877731647983733
---
header: 
  seq: 26824
  stamp: 
    secs: 1693405730
    nsecs: 996926531
  frame_id: "map"
pose: 
  position: 
    x: -2.875011444091797
    y: -0.6300039291381836
    z: 0.4893415570259094
  orientation: 
    x: -0.008348712638882955
    y: -0.015560133534951425
    z: 0.6174762879424395
    w: 0.7863912595900091
---
header: 
  seq: 26825
  stamp: 
    secs: 1693405731
    nsecs:  27192716
  frame_id: "map"
pose: 
  position: 
    x: -2.875537633895874
    y: -0.6276662945747375
    z: 0.49069979786872864
  orientation: 
    x: -0.006086554798156281
    y: -0.011792853445914301
    z: 0.6192150368645553
    w: 0.785109376219865
---
header: 
  seq: 26826
  stamp: 
    secs: 1693405731
    nsecs:  56486264
  frame_id: "map"
pose: 
  position: 
    x: -2.8763794898986816
    y: -0.625060498714447
    z: 0.49161455035209656
  orientation: 
    x: -0.004398624635471446
    y: -0.010369911590892629
    z: 0.620888040525322
    w: 0.7838183362614408
---
header: 
  seq: 26827
  stamp: 
    secs: 1693405731
    nsecs:  96579784
  frame_id: "map"
pose: 
  position: 
    x: -2.8774073123931885
    y: -0.6212347745895386
    z: 0.4926395118236542
  orientation: 
    x: -0.004213891191436292
    y: -0.010527860880329398
    z: 0.6231339340447651
    w: 0.7820329343146937
---
header: 
  seq: 26828
  stamp: 
    secs: 1693405731
    nsecs: 126912184
  frame_id: "map"
pose: 
  position: 
    x: -2.878920316696167
    y: -0.6184069514274597
    z: 0.49328503012657166
  orientation: 
    x: -0.004106093854336214
    y: -0.012312999220042458
    z: 0.6246127530970359
    w: 0.7808267806035882
---
header: 
  seq: 26829
  stamp: 
    secs: 1693405731
    nsecs: 157235820
  frame_id: "map"
pose: 
  position: 
    x: -2.8804266452789307
    y: -0.6154846549034119
    z: 0.4934564232826233
  orientation: 
    x: -0.00511359450546177
    y: -0.011601647672848738
    z: 0.626153626893737
    w: 0.7795966797836813
---
header: 
  seq: 26830
  stamp: 
    secs: 1693405731
    nsecs: 197324950
  frame_id: "map"
pose: 
  position: 
    x: -2.8828535079956055
    y: -0.6117865443229675
    z: 0.49325835704803467
  orientation: 
    x: -0.00741590741560769
    y: -0.009964495469258504
    z: 0.6281355392916489
    w: 0.7780047965370754
---
header: 
  seq: 26831
  stamp: 
    secs: 1693405731
    nsecs: 226627306
  frame_id: "map"
pose: 
  position: 
    x: -2.884857416152954
    y: -0.6089684367179871
    z: 0.4927401542663574
  orientation: 
    x: -0.008133563161515173
    y: -0.008835150815464902
    z: 0.6295615980294839
    w: 0.7768577920913721
---
header: 
  seq: 26832
  stamp: 
    secs: 1693405731
    nsecs: 256888513
  frame_id: "map"
pose: 
  position: 
    x: -2.8869009017944336
    y: -0.605797529220581
    z: 0.4920690953731537
  orientation: 
    x: -0.009961783265827796
    y: -0.008807112305425932
    z: 0.630828701662572
    w: 0.7758081858857733
---
header: 
  seq: 26833
  stamp: 
    secs: 1693405731
    nsecs: 296961796
  frame_id: "map"
pose: 
  position: 
    x: -2.8898231983184814
    y: -0.6014885902404785
    z: 0.49094393849372864
  orientation: 
    x: -0.011581946802792165
    y: -0.011000276181250174
    z: 0.63280386560395
    w: 0.7741473533591289
---
header: 
  seq: 26834
  stamp: 
    secs: 1693405731
    nsecs: 327268006
  frame_id: "map"
pose: 
  position: 
    x: -2.8924062252044678
    y: -0.5987468361854553
    z: 0.4900161325931549
  orientation: 
    x: -0.013031298329557085
    y: -0.014039981721424457
    z: 0.6341481948476673
    w: 0.7729742247343455
---
header: 
  seq: 26835
  stamp: 
    secs: 1693405731
    nsecs: 356559194
  frame_id: "map"
pose: 
  position: 
    x: -2.894714117050171
    y: -0.5955628156661987
    z: 0.48968780040740967
  orientation: 
    x: -0.011423508499242483
    y: -0.01567111037455076
    z: 0.6356042632588754
    w: 0.7717714668831165
---
header: 
  seq: 26836
  stamp: 
    secs: 1693405731
    nsecs: 396594624
  frame_id: "map"
pose: 
  position: 
    x: -2.8979811668395996
    y: -0.5913822650909424
    z: 0.489877849817276
  orientation: 
    x: -0.009447916582677239
    y: -0.014910981059334033
    z: 0.6374686901909383
    w: 0.7702740144110822
---
header: 
  seq: 26837
  stamp: 
    secs: 1693405731
    nsecs: 426849846
  frame_id: "map"
pose: 
  position: 
    x: -2.9004909992218018
    y: -0.588286280632019
    z: 0.48964789509773254
  orientation: 
    x: -0.008448694296808246
    y: -0.011528997236776762
    z: 0.6387743928740462
    w: 0.7692613418801096
---
header: 
  seq: 26838
  stamp: 
    secs: 1693405731
    nsecs: 457109188
  frame_id: "map"
pose: 
  position: 
    x: -2.9031949043273926
    y: -0.5850367546081543
    z: 0.4890390634536743
  orientation: 
    x: -0.008207316560443429
    y: -0.0075888931847644045
    z: 0.6403175359112445
    w: 0.7680290077256832
---
header: 
  seq: 26839
  stamp: 
    secs: 1693405731
    nsecs: 497114765
  frame_id: "map"
pose: 
  position: 
    x: -2.9067065715789795
    y: -0.5804704427719116
    z: 0.4882335066795349
  orientation: 
    x: -0.00916574910793901
    y: -0.003963744032999727
    z: 0.642539661713272
    w: 0.7661873421207137
---
header: 
  seq: 26840
  stamp: 
    secs: 1693405731
    nsecs: 526407852
  frame_id: "map"
pose: 
  position: 
    x: -2.909621477127075
    y: -0.5773879885673523
    z: 0.4875677824020386
  orientation: 
    x: -0.009686249511236426
    y: -0.004415570205757072
    z: 0.6440927585668375
    w: 0.7648733351521484
---
header: 
  seq: 26841
  stamp: 
    secs: 1693405731
    nsecs: 556679674
  frame_id: "map"
pose: 
  position: 
    x: -2.9133307933807373
    y: -0.573789119720459
    z: 0.4870712459087372
  orientation: 
    x: -0.010190853470327407
    y: -0.007331926709164882
    z: 0.6455382749273757
    w: 0.7636247117876717
---
header: 
  seq: 26842
  stamp: 
    secs: 1693405731
    nsecs: 596719966
  frame_id: "map"
pose: 
  position: 
    x: -2.9182937145233154
    y: -0.5695834159851074
    z: 0.4859856963157654
  orientation: 
    x: -0.011731134085269691
    y: -0.011316172150755931
    z: 0.6472319505460526
    w: 0.762118850680384
---
header: 
  seq: 26843
  stamp: 
    secs: 1693405731
    nsecs: 626989375
  frame_id: "map"
pose: 
  position: 
    x: -2.9222426414489746
    y: -0.5662506222724915
    z: 0.48465412855148315
  orientation: 
    x: -0.01576704997733838
    y: -0.012421598500983093
    z: 0.6481300912670537
    w: 0.7612650718434056
---
header: 
  seq: 26844
  stamp: 
    secs: 1693405731
    nsecs: 657265372
  frame_id: "map"
pose: 
  position: 
    x: -2.925935745239258
    y: -0.5626794099807739
    z: 0.48154932260513306
  orientation: 
    x: -0.020426443591758034
    y: -0.014582360073953938
    z: 0.6487244551904424
    w: 0.7606094719587699
---
header: 
  seq: 26845
  stamp: 
    secs: 1693405731
    nsecs: 697277927
  frame_id: "map"
pose: 
  position: 
    x: -2.930542230606079
    y: -0.5584999918937683
    z: 0.4760757386684418
  orientation: 
    x: -0.023985486524420407
    y: -0.014058683544043686
    z: 0.6498243186013406
    w: 0.7595758078413865
---
header: 
  seq: 26846
  stamp: 
    secs: 1693405731
    nsecs: 726537883
  frame_id: "map"
pose: 
  position: 
    x: -2.9335403442382812
    y: -0.5556256771087646
    z: 0.4725136458873749
  orientation: 
    x: -0.02609154927568434
    y: -0.01298671854031968
    z: 0.6505842471989703
    w: 0.7588746207959995
---
header: 
  seq: 26847
  stamp: 
    secs: 1693405731
    nsecs: 756814421
  frame_id: "map"
pose: 
  position: 
    x: -2.9371237754821777
    y: -0.5529209971427917
    z: 0.46918585896492004
  orientation: 
    x: -0.026204982563630776
    y: -0.012824094509245716
    z: 0.6512420265637587
    w: 0.7583090934617165
---
header: 
  seq: 26848
  stamp: 
    secs: 1693405731
    nsecs: 796834276
  frame_id: "map"
pose: 
  position: 
    x: -2.941068410873413
    y: -0.5493915677070618
    z: 0.46431857347488403
  orientation: 
    x: -0.024565227455583902
    y: -0.01258283619718083
    z: 0.6520633051281237
    w: 0.7576620011476205
---
header: 
  seq: 26849
  stamp: 
    secs: 1693405731
    nsecs: 827056940
  frame_id: "map"
pose: 
  position: 
    x: -2.944444179534912
    y: -0.5467514395713806
    z: 0.4613451063632965
  orientation: 
    x: -0.025049351018411953
    y: -0.013450221507553966
    z: 0.6524623713302495
    w: 0.7572876154639505
---
header: 
  seq: 26850
  stamp: 
    secs: 1693405731
    nsecs: 857308749
  frame_id: "map"
pose: 
  position: 
    x: -2.947967767715454
    y: -0.544521152973175
    z: 0.4583718180656433
  orientation: 
    x: -0.025653186246890537
    y: -0.014415709135973061
    z: 0.6527946866364591
    w: 0.7569631678788769
---
header: 
  seq: 26851
  stamp: 
    secs: 1693405731
    nsecs: 896302208
  frame_id: "map"
pose: 
  position: 
    x: -2.952132225036621
    y: -0.5417265892028809
    z: 0.4545711576938629
  orientation: 
    x: -0.02250512023538779
    y: -0.01522593719044294
    z: 0.6533154649241643
    w: 0.7565980722044645
---
header: 
  seq: 26852
  stamp: 
    secs: 1693405731
    nsecs: 926549406
  frame_id: "map"
pose: 
  position: 
    x: -2.9552361965179443
    y: -0.539303183555603
    z: 0.4519200026988983
  orientation: 
    x: -0.02118946646539574
    y: -0.01774248860864238
    z: 0.6536263853615706
    w: 0.7563126040586988
---
header: 
  seq: 26853
  stamp: 
    secs: 1693405731
    nsecs: 956813895
  frame_id: "map"
pose: 
  position: 
    x: -2.958181381225586
    y: -0.53668212890625
    z: 0.44946324825286865
  orientation: 
    x: -0.022691224662318033
    y: -0.021991398925732427
    z: 0.653942470610706
    w: 0.7558841011281064
---
header: 
  seq: 26854
  stamp: 
    secs: 1693405731
    nsecs: 996903788
  frame_id: "map"
pose: 
  position: 
    x: -2.962053060531616
    y: -0.533542275428772
    z: 0.4456403851509094
  orientation: 
    x: -0.023691435600027608
    y: -0.031343223752394234
    z: 0.6543598383943631
    w: 0.7551619148239246
---
header: 
  seq: 26855
  stamp: 
    secs: 1693405732
    nsecs:  26204005
  frame_id: "map"
pose: 
  position: 
    x: -2.9643189907073975
    y: -0.5310560464859009
    z: 0.4428284764289856
  orientation: 
    x: -0.02194384126654001
    y: -0.04012669599443279
    z: 0.6546340363107024
    w: 0.7545611916551801
---
header: 
  seq: 26856
  stamp: 
    secs: 1693405732
    nsecs:  57452085
  frame_id: "map"
pose: 
  position: 
    x: -2.9661972522735596
    y: -0.5280566215515137
    z: 0.43943989276885986
  orientation: 
    x: -0.016026336786591835
    y: -0.04640501749706337
    z: 0.6550460716900344
    w: 0.7539922907260306
---
header: 
  seq: 26857
  stamp: 
    secs: 1693405732
    nsecs:  96497213
  frame_id: "map"
pose: 
  position: 
    x: -2.9678306579589844
    y: -0.5237261056900024
    z: 0.43440574407577515
  orientation: 
    x: -0.008526541314048803
    y: -0.04807985096348015
    z: 0.6555331761889793
    w: 0.7535860068326604
---
header: 
  seq: 26858
  stamp: 
    secs: 1693405732
    nsecs: 126783222
  frame_id: "map"
pose: 
  position: 
    x: -2.9687695503234863
    y: -0.519538938999176
    z: 0.4301755428314209
  orientation: 
    x: -0.004835751141546885
    y: -0.04624248551826217
    z: 0.6557078432327009
    w: 0.7535817727836265
---
header: 
  seq: 26859
  stamp: 
    secs: 1693405732
    nsecs: 157073764
  frame_id: "map"
pose: 
  position: 
    x: -2.9694271087646484
    y: -0.5146042108535767
    z: 0.4258069396018982
  orientation: 
    x: -0.0009341198310266866
    y: -0.039934959200296424
    z: 0.6562357059847149
    w: 0.7534978457103972
---
header: 
  seq: 26860
  stamp: 
    secs: 1693405732
    nsecs: 196145580
  frame_id: "map"
pose: 
  position: 
    x: -2.9698047637939453
    y: -0.5075958371162415
    z: 0.41947677731513977
  orientation: 
    x: -0.0018423827485609231
    y: -0.031873994926113
    z: 0.6561343899420234
    w: 0.7539683894505455
---
header: 
  seq: 26861
  stamp: 
    secs: 1693405732
    nsecs: 226442680
  frame_id: "map"
pose: 
  position: 
    x: -2.9707977771759033
    y: -0.5013133883476257
    z: 0.41391029953956604
  orientation: 
    x: -0.005499269986288112
    y: -0.025327984076938054
    z: 0.6559987823873649
    w: 0.7543168061841736
---
header: 
  seq: 26862
  stamp: 
    secs: 1693405732
    nsecs: 256743452
  frame_id: "map"
pose: 
  position: 
    x: -2.9715888500213623
    y: -0.495035856962204
    z: 0.40759894251823425
  orientation: 
    x: -0.008086735487984734
    y: -0.01915857567212632
    z: 0.6555947757733809
    w: 0.754826539916724
---
header: 
  seq: 26863
  stamp: 
    secs: 1693405732
    nsecs: 296820864
  frame_id: "map"
pose: 
  position: 
    x: -2.972135066986084
    y: -0.4863409698009491
    z: 0.3994080722332001
  orientation: 
    x: -0.010141917665357268
    y: -0.010967658627728015
    z: 0.6549759699109525
    w: 0.7555020298378297
---
header: 
  seq: 26864
  stamp: 
    secs: 1693405732
    nsecs: 327121909
  frame_id: "map"
pose: 
  position: 
    x: -2.9724717140197754
    y: -0.4797411561012268
    z: 0.39341020584106445
  orientation: 
    x: -0.011448122143623203
    y: -0.006082765798224233
    z: 0.6542235508627783
    w: 0.7561901487555833
---
header: 
  seq: 26865
  stamp: 
    secs: 1693405732
    nsecs: 356380870
  frame_id: "map"
pose: 
  position: 
    x: -2.9733316898345947
    y: -0.4730677008628845
    z: 0.3876001536846161
  orientation: 
    x: -0.013023741344471842
    y: -0.0031399180524070377
    z: 0.6535811682429289
    w: 0.7567378786612461
---
header: 
  seq: 26866
  stamp: 
    secs: 1693405732
    nsecs: 396400419
  frame_id: "map"
pose: 
  position: 
    x: -2.974445104598999
    y: -0.4636397063732147
    z: 0.37999778985977173
  orientation: 
    x: -0.015888201340621164
    y: -0.0019900399488574053
    z: 0.6526449300312054
    w: 0.7574947295579961
---
header: 
  seq: 26867
  stamp: 
    secs: 1693405732
    nsecs: 426679690
  frame_id: "map"
pose: 
  position: 
    x: -2.9752581119537354
    y: -0.45669493079185486
    z: 0.3750438392162323
  orientation: 
    x: -0.017841710289618385
    y: -0.0031095174369456264
    z: 0.6518854928144492
    w: 0.7581011600905108
---
header: 
  seq: 26868
  stamp: 
    secs: 1693405732
    nsecs: 456943506
  frame_id: "map"
pose: 
  position: 
    x: -2.976227045059204
    y: -0.44991180300712585
    z: 0.36983150243759155
  orientation: 
    x: -0.01837285975779181
    y: -0.005724944003383797
    z: 0.6511060908316973
    w: 0.7587427053933584
---
header: 
  seq: 26869
  stamp: 
    secs: 1693405732
    nsecs: 496978734
  frame_id: "map"
pose: 
  position: 
    x: -2.9774234294891357
    y: -0.4409729242324829
    z: 0.36292150616645813
  orientation: 
    x: -0.01965969918646093
    y: -0.007803922267573807
    z: 0.6501829452320402
    w: 0.7594832236285783
---
header: 
  seq: 26870
  stamp: 
    secs: 1693405732
    nsecs: 526259807
  frame_id: "map"
pose: 
  position: 
    x: -2.9784388542175293
    y: -0.4338113069534302
    z: 0.3577877879142761
  orientation: 
    x: -0.021484445324630924
    y: -0.009171131414964454
    z: 0.6492863223508416
    w: 0.7601852459488739
---
header: 
  seq: 26871
  stamp: 
    secs: 1693405732
    nsecs: 556526563
  frame_id: "map"
pose: 
  position: 
    x: -2.979787588119507
    y: -0.4268527030944824
    z: 0.3514985144138336
  orientation: 
    x: -0.02301405184425916
    y: -0.009878076323629812
    z: 0.6483095833921395
    w: 0.7609648274678591
---
header: 
  seq: 26872
  stamp: 
    secs: 1693405732
    nsecs: 596559559
  frame_id: "map"
pose: 
  position: 
    x: -2.9814088344573975
    y: -0.4173579216003418
    z: 0.3430613577365875
  orientation: 
    x: -0.023881681742222733
    y: -0.011044193904186731
    z: 0.6472712214993241
    w: 0.7618055391997463
---
header: 
  seq: 26873
  stamp: 
    secs: 1693405732
    nsecs: 626829243
  frame_id: "map"
pose: 
  position: 
    x: -2.9825618267059326
    y: -0.4103766977787018
    z: 0.33655571937561035
  orientation: 
    x: -0.023810071260453224
    y: -0.011161089793072726
    z: 0.6466926225973475
    w: 0.7622973323216
---
header: 
  seq: 26874
  stamp: 
    secs: 1693405732
    nsecs: 657117012
  frame_id: "map"
pose: 
  position: 
    x: -2.9834072589874268
    y: -0.4035743772983551
    z: 0.330482542514801
  orientation: 
    x: -0.02353799000552356
    y: -0.011038184651366243
    z: 0.6462581997419681
    w: 0.762675862668759
---
header: 
  seq: 26875
  stamp: 
    secs: 1693405732
    nsecs: 696206950
  frame_id: "map"
pose: 
  position: 
    x: -2.984776735305786
    y: -0.3946704864501953
    z: 0.32186633348464966
  orientation: 
    x: -0.02326435661888118
    y: -0.01025002093828845
    z: 0.6452683796210436
    w: 0.7635328722447762
---
header: 
  seq: 26876
  stamp: 
    secs: 1693405732
    nsecs: 726522367
  frame_id: "map"
pose: 
  position: 
    x: -2.9854774475097656
    y: -0.38772931694984436
    z: 0.3153584599494934
  orientation: 
    x: -0.02105304258562995
    y: -0.00816441837273536
    z: 0.6447184905169001
    w: 0.7640865180759298
---
header: 
  seq: 26877
  stamp: 
    secs: 1693405732
    nsecs: 756781711
  frame_id: "map"
pose: 
  position: 
    x: -2.986245632171631
    y: -0.3808732032775879
    z: 0.30852070450782776
  orientation: 
    x: -0.019797967063903778
    y: -0.007734029356143865
    z: 0.6437697491616601
    w: 0.7649240033768132
---
header: 
  seq: 26878
  stamp: 
    secs: 1693405732
    nsecs: 796807801
  frame_id: "map"
pose: 
  position: 
    x: -2.9875235557556152
    y: -0.3717467188835144
    z: 0.29937270283699036
  orientation: 
    x: -0.01827955828121644
    y: -0.005543266783022988
    z: 0.6429258012242313
    w: 0.7656902509248668
---
header: 
  seq: 26879
  stamp: 
    secs: 1693405732
    nsecs: 827123972
  frame_id: "map"
pose: 
  position: 
    x: -2.9882450103759766
    y: -0.36457937955856323
    z: 0.29274797439575195
  orientation: 
    x: -0.019618527198572145
    y: -0.004224839891667611
    z: 0.6420898964652818
    w: 0.76636666507743
---
header: 
  seq: 26880
  stamp: 
    secs: 1693405732
    nsecs: 856421231
  frame_id: "map"
pose: 
  position: 
    x: -2.988935708999634
    y: -0.3579064607620239
    z: 0.28616073727607727
  orientation: 
    x: -0.018260882979446582
    y: -0.0030615168545705678
    z: 0.6415202464189675
    w: 0.7668826517253444
---
header: 
  seq: 26881
  stamp: 
    secs: 1693405732
    nsecs: 896468238
  frame_id: "map"
pose: 
  position: 
    x: -2.990264654159546
    y: -0.349018394947052
    z: 0.27667152881622314
  orientation: 
    x: -0.013290392455558473
    y: -0.007931739285315946
    z: 0.640595619556146
    w: 0.7677224487049132
---
header: 
  seq: 26882
  stamp: 
    secs: 1693405732
    nsecs: 926782553
  frame_id: "map"
pose: 
  position: 
    x: -2.9914097785949707
    y: -0.3419378697872162
    z: 0.26944467425346375
  orientation: 
    x: -0.012783161446670846
    y: -0.010886166667696236
    z: 0.6398896982696564
    w: 0.7682833356132694
---
header: 
  seq: 26883
  stamp: 
    secs: 1693405732
    nsecs: 957098467
  frame_id: "map"
pose: 
  position: 
    x: -2.992450475692749
    y: -0.3347417414188385
    z: 0.2621136009693146
  orientation: 
    x: -0.01447605778296568
    y: -0.011373027934541934
    z: 0.6394457266104409
    w: 0.7686157929341604
---
header: 
  seq: 26884
  stamp: 
    secs: 1693405732
    nsecs: 997159938
  frame_id: "map"
pose: 
  position: 
    x: -2.9937682151794434
    y: -0.32421886920928955
    z: 0.25140032172203064
  orientation: 
    x: -0.019064874422549647
    y: -0.01052194790467682
    z: 0.6385325188307075
    w: 0.7692867219730856
---
header: 
  seq: 26885
  stamp: 
    secs: 1693405733
    nsecs:  26457651
  frame_id: "map"
pose: 
  position: 
    x: -2.994699001312256
    y: -0.3164718747138977
    z: 0.24354445934295654
  orientation: 
    x: -0.020158410268894963
    y: -0.008206663021164198
    z: 0.6379804653709924
    w: 0.7697449184185257
---
header: 
  seq: 26886
  stamp: 
    secs: 1693405733
    nsecs:  56739971
  frame_id: "map"
pose: 
  position: 
    x: -2.995529890060425
    y: -0.30896690487861633
    z: 0.23552757501602173
  orientation: 
    x: -0.018973732029592013
    y: -0.009324989072750917
    z: 0.6371952633945933
    w: 0.770412434330262
---
header: 
  seq: 26887
  stamp: 
    secs: 1693405733
    nsecs:  96825994
  frame_id: "map"
pose: 
  position: 
    x: -2.996398687362671
    y: -0.2992936074733734
    z: 0.22500553727149963
  orientation: 
    x: -0.01702314283327892
    y: -0.00811073634838665
    z: 0.6366467734446335
    w: 0.7709249665378415
---
header: 
  seq: 26888
  stamp: 
    secs: 1693405733
    nsecs: 127090233
  frame_id: "map"
pose: 
  position: 
    x: -2.9970016479492188
    y: -0.2922729253768921
    z: 0.21703803539276123
  orientation: 
    x: -0.019066626060803542
    y: -0.005126898812849818
    z: 0.6360849228100887
    w: 0.7713664797745218
---
header: 
  seq: 26889
  stamp: 
    secs: 1693405733
    nsecs: 157363436
  frame_id: "map"
pose: 
  position: 
    x: -2.9978091716766357
    y: -0.28470101952552795
    z: 0.2089330554008484
  orientation: 
    x: -0.02117178033243456
    y: -0.0008794953156806455
    z: 0.6358451610180044
    w: 0.7715257078277109
---
header: 
  seq: 26890
  stamp: 
    secs: 1693405733
    nsecs: 196410535
  frame_id: "map"
pose: 
  position: 
    x: -2.9984567165374756
    y: -0.2750698924064636
    z: 0.19872279465198517
  orientation: 
    x: -0.02404372791494015
    y: 0.0043892430941519095
    z: 0.6356827273986099
    w: 0.7715634293432807
---
header: 
  seq: 26891
  stamp: 
    secs: 1693405733
    nsecs: 226684448
  frame_id: "map"
pose: 
  position: 
    x: -2.99942946434021
    y: -0.2671499252319336
    z: 0.1893448829650879
  orientation: 
    x: -0.02510694660247156
    y: 0.006348125164994766
    z: 0.6355779658150368
    w: 0.7716022642819259
---
header: 
  seq: 26892
  stamp: 
    secs: 1693405733
    nsecs: 256969872
  frame_id: "map"
pose: 
  position: 
    x: -3.000300645828247
    y: -0.25994357466697693
    z: 0.18057724833488464
  orientation: 
    x: -0.023606680401185066
    y: 0.008581233133438554
    z: 0.6357026508477018
    w: 0.7715252539512069
---
header: 
  seq: 26893
  stamp: 
    secs: 1693405733
    nsecs: 296986636
  frame_id: "map"
pose: 
  position: 
    x: -3.0016090869903564
    y: -0.2508399784564972
    z: 0.16897302865982056
  orientation: 
    x: -0.019849196230791444
    y: 0.010153741983056425
    z: 0.6356518904749475
    w: 0.7716538158686245
---
header: 
  seq: 26894
  stamp: 
    secs: 1693405733
    nsecs: 326283461
  frame_id: "map"
pose: 
  position: 
    x: -3.0027575492858887
    y: -0.2444988340139389
    z: 0.16078782081604004
  orientation: 
    x: -0.016498486300278715
    y: 0.01025254135043202
    z: 0.6356565388500626
    w: 0.7717276419007407
---
header: 
  seq: 26895
  stamp: 
    secs: 1693405733
    nsecs: 356573727
  frame_id: "map"
pose: 
  position: 
    x: -3.003983736038208
    y: -0.2379482090473175
    z: 0.15304657816886902
  orientation: 
    x: -0.01397617860379841
    y: 0.009301331423376009
    z: 0.6355935164441565
    w: 0.7718413456634137
---
header: 
  seq: 26896
  stamp: 
    secs: 1693405733
    nsecs: 396612812
  frame_id: "map"
pose: 
  position: 
    x: -3.0063304901123047
    y: -0.22952653467655182
    z: 0.14234082400798798
  orientation: 
    x: -0.012002596845640649
    y: 0.006950345743682342
    z: 0.6356802716540277
    w: 0.7718278506585262
---
header: 
  seq: 26897
  stamp: 
    secs: 1693405733
    nsecs: 426889743
  frame_id: "map"
pose: 
  position: 
    x: -3.0083670616149902
    y: -0.22310087084770203
    z: 0.13466018438339233
  orientation: 
    x: -0.011743898740449104
    y: 0.004204775452570308
    z: 0.6359537376518346
    w: 0.7716263990412713
---
header: 
  seq: 26898
  stamp: 
    secs: 1693405733
    nsecs: 457171375
  frame_id: "map"
pose: 
  position: 
    x: -3.0104641914367676
    y: -0.2168085277080536
    z: 0.1274198740720749
  orientation: 
    x: -0.01111933074254909
    y: 0.0020252598609227573
    z: 0.6362646748705988
    w: 0.7713880502950339
---
header: 
  seq: 26899
  stamp: 
    secs: 1693405733
    nsecs: 497202851
  frame_id: "map"
pose: 
  position: 
    x: -3.0137717723846436
    y: -0.20809927582740784
    z: 0.11718679219484329
  orientation: 
    x: -0.012635971435025881
    y: -0.0011492486466384245
    z: 0.6366087958518689
    w: 0.7710825151129391
---
header: 
  seq: 26900
  stamp: 
    secs: 1693405733
    nsecs: 526468731
  frame_id: "map"
pose: 
  position: 
    x: -3.016613483428955
    y: -0.2022329419851303
    z: 0.11029370129108429
  orientation: 
    x: -0.01281731226692917
    y: -0.0017495405789242522
    z: 0.6369119411434692
    w: 0.7708280209839399
---
header: 
  seq: 26901
  stamp: 
    secs: 1693405733
    nsecs: 556713915
  frame_id: "map"
pose: 
  position: 
    x: -3.0197582244873047
    y: -0.1957964152097702
    z: 0.10275167226791382
  orientation: 
    x: -0.014007795471429997
    y: -0.002002366648746367
    z: 0.6371499820756972
    w: 0.7706099419541933
---
header: 
  seq: 26902
  stamp: 
    secs: 1693405733
    nsecs: 596772007
  frame_id: "map"
pose: 
  position: 
    x: -3.023646354675293
    y: -0.1873784363269806
    z: 0.0930425152182579
  orientation: 
    x: -0.014332788231230742
    y: -0.0011889926875537332
    z: 0.6377473119279057
    w: 0.7701113784574819
---
header: 
  seq: 26903
  stamp: 
    secs: 1693405733
    nsecs: 627033111
  frame_id: "map"
pose: 
  position: 
    x: -3.026601552963257
    y: -0.18090960383415222
    z: 0.08573859184980392
  orientation: 
    x: -0.015667717344489723
    y: -0.0014703070633991558
    z: 0.6379987223072577
    w: 0.7698766446387898
---
header: 
  seq: 26904
  stamp: 
    secs: 1693405733
    nsecs: 656325432
  frame_id: "map"
pose: 
  position: 
    x: -3.029693603515625
    y: -0.17438384890556335
    z: 0.07830517739057541
  orientation: 
    x: -0.01657240455853156
    y: -0.0016726325044191326
    z: 0.6384071848471309
    w: 0.7695185810343635
---
header: 
  seq: 26905
  stamp: 
    secs: 1693405733
    nsecs: 696368690
  frame_id: "map"
pose: 
  position: 
    x: -3.034055709838867
    y: -0.16551630198955536
    z: 0.0683080181479454
  orientation: 
    x: -0.017999657376038647
    y: -0.0015258591789845555
    z: 0.6388809539356779
    w: 0.7690935003239857
---
header: 
  seq: 26906
  stamp: 
    secs: 1693405733
    nsecs: 726633633
  frame_id: "map"
pose: 
  position: 
    x: -3.037550687789917
    y: -0.15875929594039917
    z: 0.060474492609500885
  orientation: 
    x: -0.01927281610745087
    y: -0.0005463838073273764
    z: 0.6394606357059304
    w: 0.7685820733393378
---
header: 
  seq: 26907
  stamp: 
    secs: 1693405733
    nsecs: 756911586
  frame_id: "map"
pose: 
  position: 
    x: -3.0411219596862793
    y: -0.15255796909332275
    z: 0.05296605825424194
  orientation: 
    x: -0.020654536840967564
    y: 0.0017701242575842574
    z: 0.6401566564225527
    w: 0.7679646685929372
---
header: 
  seq: 26908
  stamp: 
    secs: 1693405733
    nsecs: 787208304
  frame_id: "map"
pose: 
  position: 
    x: -3.044997215270996
    y: -0.1465190351009369
    z: 0.04471638426184654
  orientation: 
    x: -0.021471351623821525
    y: 0.003951993413948376
    z: 0.6406804209977619
    w: 0.7674972137243722
---
header: 
  seq: 26909
  stamp: 
    secs: 1693405733
    nsecs: 826258804
  frame_id: "map"
pose: 
  position: 
    x: -3.0502326488494873
    y: -0.13935180008411407
    z: 0.034995678812265396
  orientation: 
    x: -0.021948622723394682
    y: 0.005342142375316072
    z: 0.6414195253951157
    w: 0.7668577142872083
---
header: 
  seq: 26910
  stamp: 
    secs: 1693405733
    nsecs: 856543697
  frame_id: "map"
pose: 
  position: 
    x: -3.0546581745147705
    y: -0.13394641876220703
    z: 0.02689351886510849
  orientation: 
    x: -0.02108621244641345
    y: 0.004976519295619371
    z: 0.641989578348428
    w: 0.7664071996879332
---
header: 
  seq: 26911
  stamp: 
    secs: 1693405733
    nsecs: 896619400
  frame_id: "map"
pose: 
  position: 
    x: -3.0605106353759766
    y: -0.1271584928035736
    z: 0.016547830775380135
  orientation: 
    x: -0.019746967434718658
    y: 0.0040167296598634175
    z: 0.6427929153990013
    w: 0.7657748946576278
---
header: 
  seq: 26912
  stamp: 
    secs: 1693405733
    nsecs: 926918097
  frame_id: "map"
pose: 
  position: 
    x: -3.0653388500213623
    y: -0.12230182439088821
    z: 0.00871856790035963
  orientation: 
    x: -0.019800676192231307
    y: 0.0027863509232746967
    z: 0.6433949061489743
    w: 0.7652732566625714
---
header: 
  seq: 26913
  stamp: 
    secs: 1693405733
    nsecs: 957216992
  frame_id: "map"
pose: 
  position: 
    x: -3.070394992828369
    y: -0.11752468347549438
    z: 0.0006241742521524429
  orientation: 
    x: -0.019501476062239457
    y: 2.9908271740033594e-05
    z: 0.6439764925318742
    w: 0.76479671886978
---
header: 
  seq: 26914
  stamp: 
    secs: 1693405733
    nsecs: 996317994
  frame_id: "map"
pose: 
  position: 
    x: -3.076963186264038
    y: -0.11170925199985504
    z: -0.009326587431132793
  orientation: 
    x: -0.01899374559347946
    y: -0.004097409189599386
    z: 0.6449680471777256
    w: 0.7639624854900754
---
header: 
  seq: 26915
  stamp: 
    secs: 1693405734
    nsecs:  26614773
  frame_id: "map"
pose: 
  position: 
    x: -3.0821826457977295
    y: -0.10717761516571045
    z: -0.01749492809176445
  orientation: 
    x: -0.019913583537516884
    y: -0.008423770731820067
    z: 0.6452979164358096
    w: 0.7636249752228883
---
header: 
  seq: 26916
  stamp: 
    secs: 1693405734
    nsecs:  56914271
  frame_id: "map"
pose: 
  position: 
    x: -3.087225914001465
    y: -0.10267607122659683
    z: -0.0252524483948946
  orientation: 
    x: -0.02256088022373667
    y: -0.011890111613479077
    z: 0.6458749758286982
    w: 0.7630171395994665
---
header: 
  seq: 26917
  stamp: 
    secs: 1693405734
    nsecs:  87172869
  frame_id: "map"
pose: 
  position: 
    x: -3.0920157432556152
    y: -0.0985555499792099
    z: -0.03377224877476692
  orientation: 
    x: -0.022374976135344143
    y: -0.012602475948858442
    z: 0.6467344316779793
    w: 0.762282866884768
---
header: 
  seq: 26918
  stamp: 
    secs: 1693405734
    nsecs: 127221755
  frame_id: "map"
pose: 
  position: 
    x: -3.0984675884246826
    y: -0.09319410473108292
    z: -0.04406766593456268
  orientation: 
    x: -0.024195929470552626
    y: -0.014094020356135481
    z: 0.647533965477898
    w: 0.761521971789953
---
header: 
  seq: 26919
  stamp: 
    secs: 1693405734
    nsecs: 156506080
  frame_id: "map"
pose: 
  position: 
    x: -3.1030142307281494
    y: -0.08935626596212387
    z: -0.051882922649383545
  orientation: 
    x: -0.02420720745203759
    y: -0.014391148131661358
    z: 0.6482386740582773
    w: 0.7609162823109973
---
header: 
  seq: 26920
  stamp: 
    secs: 1693405734
    nsecs: 196535936
  frame_id: "map"
pose: 
  position: 
    x: -3.109379768371582
    y: -0.08445531129837036
    z: -0.06261315941810608
  orientation: 
    x: -0.024189502692392385
    y: -0.01587419083557849
    z: 0.6490340084277199
    w: 0.7602090277193417
---
header: 
  seq: 26921
  stamp: 
    secs: 1693405734
    nsecs: 226785990
  frame_id: "map"
pose: 
  position: 
    x: -3.113579034805298
    y: -0.0807504951953888
    z: -0.07059597223997116
  orientation: 
    x: -0.02480535122312311
    y: -0.01765649791013375
    z: 0.6495015469401472
    w: 0.7597504469622922
---
header: 
  seq: 26922
  stamp: 
    secs: 1693405734
    nsecs: 257098304
  frame_id: "map"
pose: 
  position: 
    x: -3.1175413131713867
    y: -0.0769234448671341
    z: -0.07905583083629608
  orientation: 
    x: -0.023336726390352787
    y: -0.019801034328804683
    z: 0.6499186572134187
    w: 0.7593872996499772
---
header: 
  seq: 26923
  stamp: 
    secs: 1693405734
    nsecs: 297126005
  frame_id: "map"
pose: 
  position: 
    x: -3.122107982635498
    y: -0.0722164660692215
    z: -0.08991999924182892
  orientation: 
    x: -0.021136855643006845
    y: -0.021243748740827708
    z: 0.6504786456065321
    w: 0.7589331506042014
---
header: 
  seq: 26924
  stamp: 
    secs: 1693405734
    nsecs: 326407936
  frame_id: "map"
pose: 
  position: 
    x: -3.125492811203003
    y: -0.06887973099946976
    z: -0.09819179773330688
  orientation: 
    x: -0.02036841429297426
    y: -0.021943590002153655
    z: 0.6508319276784886
    w: 0.7586312712947416
---
header: 
  seq: 26925
  stamp: 
    secs: 1693405734
    nsecs: 356664125
  frame_id: "map"
pose: 
  position: 
    x: -3.1283092498779297
    y: -0.06530525535345078
    z: -0.10658653825521469
  orientation: 
    x: -0.0186021188299484
    y: -0.020920996764238614
    z: 0.6514277061369328
    w: 0.7581940776672329
---
header: 
  seq: 26926
  stamp: 
    secs: 1693405734
    nsecs: 396715389
  frame_id: "map"
pose: 
  position: 
    x: -3.1318740844726562
    y: -0.0606180764734745
    z: -0.11797484010457993
  orientation: 
    x: -0.01650783426795412
    y: -0.020292081555100972
    z: 0.651902019215601
    w: 0.7578519216095893
---
header: 
  seq: 26927
  stamp: 
    secs: 1693405734
    nsecs: 426985914
  frame_id: "map"
pose: 
  position: 
    x: -3.1344451904296875
    y: -0.05691790580749512
    z: -0.12658512592315674
  orientation: 
    x: -0.013412587873961941
    y: -0.019452723737419825
    z: 0.6523749012118081
    w: 0.7575280279893039
---
header: 
  seq: 26928
  stamp: 
    secs: 1693405734
    nsecs: 456293888
  frame_id: "map"
pose: 
  position: 
    x: -3.136599063873291
    y: -0.052977677434682846
    z: -0.13501235842704773
  orientation: 
    x: -0.011753043103787098
    y: -0.01880677234225816
    z: 0.6525032450453885
    w: 0.7574613534319231
---
header: 
  seq: 26929
  stamp: 
    secs: 1693405734
    nsecs: 496358489
  frame_id: "map"
pose: 
  position: 
    x: -3.139960527420044
    y: -0.047479525208473206
    z: -0.1462150365114212
  orientation: 
    x: -0.008648487664821118
    y: -0.017327275796686248
    z: 0.6527055925259979
    w: 0.7573641256791087
---
header: 
  seq: 26930
  stamp: 
    secs: 1693405734
    nsecs: 526615721
  frame_id: "map"
pose: 
  position: 
    x: -3.142279624938965
    y: -0.04319102689623833
    z: -0.1549854278564453
  orientation: 
    x: -0.006487700836198484
    y: -0.01638528689652456
    z: 0.6526736095955868
    w: 0.7574342294819588
---
header: 
  seq: 26931
  stamp: 
    secs: 1693405734
    nsecs: 556890146
  frame_id: "map"
pose: 
  position: 
    x: -3.144343137741089
    y: -0.0387810580432415
    z: -0.16379201412200928
  orientation: 
    x: -0.0036097420370193637
    y: -0.015955950643821694
    z: 0.6526099230111201
    w: 0.7575174843820859
---
header: 
  seq: 26932
  stamp: 
    secs: 1693405734
    nsecs: 587133343
  frame_id: "map"
pose: 
  position: 
    x: -3.1469907760620117
    y: -0.034041211009025574
    z: -0.17212389409542084
  orientation: 
    x: -0.00310613266089563
    y: -0.01563792994297478
    z: 0.6527193832707398
    w: 0.7574319990287102
---
header: 
  seq: 26933
  stamp: 
    secs: 1693405734
    nsecs: 627161189
  frame_id: "map"
pose: 
  position: 
    x: -3.1505680084228516
    y: -0.027507012709975243
    z: -0.1836814135313034
  orientation: 
    x: -0.002090487413218627
    y: -0.01483218676648805
    z: 0.6527472153595315
    w: 0.7574277594280219
---
header: 
  seq: 26934
  stamp: 
    secs: 1693405734
    nsecs: 656431367
  frame_id: "map"
pose: 
  position: 
    x: -3.152850389480591
    y: -0.022597648203372955
    z: -0.1917327344417572
  orientation: 
    x: -0.000805027111877441
    y: -0.014081814662301713
    z: 0.6528806191712689
    w: 0.7573294820793236
---
header: 
  seq: 26935
  stamp: 
    secs: 1693405734
    nsecs: 696457255
  frame_id: "map"
pose: 
  position: 
    x: -3.156310558319092
    y: -0.015219831839203835
    z: -0.20281606912612915
  orientation: 
    x: -0.0005229677022786033
    y: -0.015001080828738007
    z: 0.6527746538455415
    w: 0.7574034550410591
---
header: 
  seq: 26936
  stamp: 
    secs: 1693405734
    nsecs: 726705868
  frame_id: "map"
pose: 
  position: 
    x: -3.1590402126312256
    y: -0.009428970515727997
    z: -0.2113669365644455
  orientation: 
    x: -0.00043088254397873917
    y: -0.01637291515012414
    z: 0.6526645087389036
    w: 0.7574699969888707
---
header: 
  seq: 26937
  stamp: 
    secs: 1693405734
    nsecs: 757012039
  frame_id: "map"
pose: 
  position: 
    x: -3.162083148956299
    y: -0.0033922959119081497
    z: -0.21972043812274933
  orientation: 
    x: -0.0012007545405738629
    y: -0.018094481990046974
    z: 0.6526498881891044
    w: 0.7574425807127444
---
header: 
  seq: 26938
  stamp: 
    secs: 1693405734
    nsecs: 797072842
  frame_id: "map"
pose: 
  position: 
    x: -3.166076183319092
    y: 0.004892414901405573
    z: -0.2306978702545166
  orientation: 
    x: -0.0019366403010484447
    y: -0.021250049449369545
    z: 0.6523957134725903
    w: 0.7575780712393991
---
header: 
  seq: 26939
  stamp: 
    secs: 1693405734
    nsecs: 826399653
  frame_id: "map"
pose: 
  position: 
    x: -3.169245481491089
    y: 0.011373111978173256
    z: -0.2386762499809265
  orientation: 
    x: -0.002033449980210475
    y: -0.023069622740844665
    z: 0.6520802047552552
    w: 0.75779622591379
---
header: 
  seq: 26940
  stamp: 
    secs: 1693405734
    nsecs: 856669491
  frame_id: "map"
pose: 
  position: 
    x: -3.172212839126587
    y: 0.01821427419781685
    z: -0.2468627691268921
  orientation: 
    x: -0.004694608864583418
    y: -0.025055994318773915
    z: 0.6514096237791726
    w: 0.7582979097821657
---
header: 
  seq: 26941
  stamp: 
    secs: 1693405734
    nsecs: 896729199
  frame_id: "map"
pose: 
  position: 
    x: -3.1762285232543945
    y: 0.027918007224798203
    z: -0.25771018862724304
  orientation: 
    x: -0.008403968535119821
    y: -0.023524398663185404
    z: 0.6509324649354239
    w: 0.7587245462058645
---
header: 
  seq: 26942
  stamp: 
    secs: 1693405734
    nsecs: 927056173
  frame_id: "map"
pose: 
  position: 
    x: -3.1791300773620605
    y: 0.03512914478778839
    z: -0.26591917872428894
  orientation: 
    x: -0.012212810917124752
    y: -0.02067199073909785
    z: 0.6505677309672171
    w: 0.7590686278176342
---
header: 
  seq: 26943
  stamp: 
    secs: 1693405734
    nsecs: 956364502
  frame_id: "map"
pose: 
  position: 
    x: -3.1816487312316895
    y: 0.04248272255063057
    z: -0.2739093005657196
  orientation: 
    x: -0.0132856056450403
    y: -0.016230527631705165
    z: 0.6503284045263319
    w: 0.7593635755433081
---
header: 
  seq: 26944
  stamp: 
    secs: 1693405734
    nsecs: 996429411
  frame_id: "map"
pose: 
  position: 
    x: -3.1852142810821533
    y: 0.05253198370337486
    z: -0.28462788462638855
  orientation: 
    x: -0.014661590297516547
    y: -0.009942264885794009
    z: 0.6496600385719895
    w: 0.7600184904848236
---
header: 
  seq: 26945
  stamp: 
    secs: 1693405735
    nsecs:  26707448
  frame_id: "map"
pose: 
  position: 
    x: -3.1880927085876465
    y: 0.06002111732959747
    z: -0.29282647371292114
  orientation: 
    x: -0.015939645495842394
    y: -0.005668035395738778
    z: 0.6493163769470038
    w: 0.7603302551623505
---
header: 
  seq: 26946
  stamp: 
    secs: 1693405735
    nsecs:  56987878
  frame_id: "map"
pose: 
  position: 
    x: -3.1910650730133057
    y: 0.06740562617778778
    z: -0.30096152424812317
  orientation: 
    x: -0.013363567109818245
    y: -0.002414724716381887
    z: 0.6490232964359788
    w: 0.7606473332278917
---
header: 
  seq: 26947
  stamp: 
    secs: 1693405735
    nsecs:  87225324
  frame_id: "map"
pose: 
  position: 
    x: -3.1945478916168213
    y: 0.07451053708791733
    z: -0.3090283274650574
  orientation: 
    x: -0.01252508291724327
    y: -0.0021772046126401303
    z: 0.6484161226205657
    w: 0.7611799584270489
---
header: 
  seq: 26948
  stamp: 
    secs: 1693405735
    nsecs: 126275377
  frame_id: "map"
pose: 
  position: 
    x: -3.1995203495025635
    y: 0.08364281058311462
    z: -0.31965360045433044
  orientation: 
    x: -0.012735919333709295
    y: -0.0054649742744930134
    z: 0.6475836415203112
    w: 0.7618683545821838
---
header: 
  seq: 26949
  stamp: 
    secs: 1693405735
    nsecs: 156557598
  frame_id: "map"
pose: 
  position: 
    x: -3.203218936920166
    y: 0.09066073596477509
    z: -0.32781854271888733
  orientation: 
    x: -0.010933519942038243
    y: -0.008458314376840978
    z: 0.6471793921073852
    w: 0.7622124025985241
---
header: 
  seq: 26950
  stamp: 
    secs: 1693405735
    nsecs: 196615366
  frame_id: "map"
pose: 
  position: 
    x: -3.208249092102051
    y: 0.10000873357057571
    z: -0.3387688994407654
  orientation: 
    x: -0.009197505336353788
    y: -0.015088321010349537
    z: 0.6463784790670921
    w: 0.7628123111834013
---
header: 
  seq: 26951
  stamp: 
    secs: 1693405735
    nsecs: 226915545
  frame_id: "map"
pose: 
  position: 
    x: -3.2121992111206055
    y: 0.10719548165798187
    z: -0.3470023572444916
  orientation: 
    x: -0.008046819233869563
    y: -0.02030209548137414
    z: 0.6458450743351645
    w: 0.7631561069334529
---
header: 
  seq: 26952
  stamp: 
    secs: 1693405735
    nsecs: 257157234
  frame_id: "map"
pose: 
  position: 
    x: -3.2158939838409424
    y: 0.11471357941627502
    z: -0.3551231324672699
  orientation: 
    x: -0.007453642958736983
    y: -0.02441476084521718
    z: 0.6454669351889052
    w: 0.763361553157408
---
header: 
  seq: 26953
  stamp: 
    secs: 1693405735
    nsecs: 297200287
  frame_id: "map"
pose: 
  position: 
    x: -3.2207019329071045
    y: 0.12494409829378128
    z: -0.36566832661628723
  orientation: 
    x: -0.006194472820685406
    y: -0.02782369865794514
    z: 0.645111375344342
    w: 0.7635566839187259
---
header: 
  seq: 26954
  stamp: 
    secs: 1693405735
    nsecs: 326487717
  frame_id: "map"
pose: 
  position: 
    x: -3.224090337753296
    y: 0.1325652152299881
    z: -0.3733060657978058
  orientation: 
    x: -0.005853089596489917
    y: -0.0289360232168225
    z: 0.644915349522355
    w: 0.763683640957704
---
header: 
  seq: 26955
  stamp: 
    secs: 1693405735
    nsecs: 357711705
  frame_id: "map"
pose: 
  position: 
    x: -3.227722644805908
    y: 0.1410723328590393
    z: -0.3813304901123047
  orientation: 
    x: -0.008898111028200612
    y: -0.030298004307474924
    z: 0.6445955344132899
    w: 0.7638713863865059
---
header: 
  seq: 26956
  stamp: 
    secs: 1693405735
    nsecs: 386997793
  frame_id: "map"
pose: 
  position: 
    x: -3.230818271636963
    y: 0.1496077924966812
    z: -0.3887777328491211
  orientation: 
    x: -0.011914176738807174
    y: -0.02962210586057278
    z: 0.6448553930814505
    w: 0.7636374199941092
---
header: 
  seq: 26957
  stamp: 
    secs: 1693405735
    nsecs: 427020025
  frame_id: "map"
pose: 
  position: 
    x: -3.2348246574401855
    y: 0.16116902232170105
    z: -0.3992829918861389
  orientation: 
    x: -0.015984685661273493
    y: -0.027493131187508388
    z: 0.6451668435713886
    w: 0.7633796191203036
---
header: 
  seq: 26958
  stamp: 
    secs: 1693405735
    nsecs: 456323187
  frame_id: "map"
pose: 
  position: 
    x: -3.236978769302368
    y: 0.1696939319372177
    z: -0.4072533845901489
  orientation: 
    x: -0.016738608065545193
    y: -0.02466977254365375
    z: 0.6456422824953711
    w: 0.7630578545821016
---
header: 
  seq: 26959
  stamp: 
    secs: 1693405735
    nsecs: 496374210
  frame_id: "map"
pose: 
  position: 
    x: -3.2401223182678223
    y: 0.18164823949337006
    z: -0.41840431094169617
  orientation: 
    x: -0.02008275297954411
    y: -0.021808867359588497
    z: 0.6461043973355387
    w: 0.7626730711718649
---
header: 
  seq: 26960
  stamp: 
    secs: 1693405735
    nsecs: 526643511
  frame_id: "map"
pose: 
  position: 
    x: -3.2421329021453857
    y: 0.1905360370874405
    z: -0.4265844523906708
  orientation: 
    x: -0.023463783974519804
    y: -0.019995423129265836
    z: 0.6464490748987858
    w: 0.7623340786724849
---
header: 
  seq: 26961
  stamp: 
    secs: 1693405735
    nsecs: 556919602
  frame_id: "map"
pose: 
  position: 
    x: -3.2440593242645264
    y: 0.19929197430610657
    z: -0.43503430485725403
  orientation: 
    x: -0.025641994307439884
    y: -0.019473088048419594
    z: 0.6469082389488797
    w: 0.7618878201383197
---
header: 
  seq: 26962
  stamp: 
    secs: 1693405735
    nsecs: 587163511
  frame_id: "map"
pose: 
  position: 
    x: -3.2456517219543457
    y: 0.207841157913208
    z: -0.4436594247817993
  orientation: 
    x: -0.02557012099162642
    y: -0.019015133253597345
    z: 0.6475536069970165
    w: 0.761353348851901
---
header: 
  seq: 26963
  stamp: 
    secs: 1693405735
    nsecs: 626224226
  frame_id: "map"
pose: 
  position: 
    x: -3.24741792678833
    y: 0.21880769729614258
    z: -0.4548790752887726
  orientation: 
    x: -0.024731661142322742
    y: -0.018274473281316077
    z: 0.6484916432953745
    w: 0.7606004085812762
---
header: 
  seq: 26964
  stamp: 
    secs: 1693405735
    nsecs: 656514566
  frame_id: "map"
pose: 
  position: 
    x: -3.2483527660369873
    y: 0.22741685807704926
    z: -0.46355098485946655
  orientation: 
    x: -0.02322988218215041
    y: -0.016906569509273446
    z: 0.6494482167156163
    w: 0.7598628763948604
---
header: 
  seq: 26965
  stamp: 
    secs: 1693405735
    nsecs: 696597026
  frame_id: "map"
pose: 
  position: 
    x: -3.249237537384033
    y: 0.2382587045431137
    z: -0.47544294595718384
  orientation: 
    x: -0.019178894307597907
    y: -0.015373008166446753
    z: 0.6505578024925512
    w: 0.7590589104854538
---
header: 
  seq: 26966
  stamp: 
    secs: 1693405735
    nsecs: 726897839
  frame_id: "map"
pose: 
  position: 
    x: -3.2497713565826416
    y: 0.24672308564186096
    z: -0.4844566881656647
  orientation: 
    x: -0.013985566613926345
    y: -0.013746103142518156
    z: 0.6514172608898078
    w: 0.7584662321422265
---
header: 
  seq: 26967
  stamp: 
    secs: 1693405735
    nsecs: 757198257
  frame_id: "map"
pose: 
  position: 
    x: -3.2502496242523193
    y: 0.25470468401908875
    z: -0.4933609366416931
  orientation: 
    x: -0.012780307478906162
    y: -0.013597671540112238
    z: 0.6518971209747341
    w: 0.7580778085207228
---
header: 
  seq: 26968
  stamp: 
    secs: 1693405735
    nsecs: 797259513
  frame_id: "map"
pose: 
  position: 
    x: -3.251408338546753
    y: 0.26538270711898804
    z: -0.5053241848945618
  orientation: 
    x: -0.01189724423015725
    y: -0.012492041767781159
    z: 0.6527114636090007
    w: 0.757410163847877
---
header: 
  seq: 26969
  stamp: 
    secs: 1693405735
    nsecs: 826543707
  frame_id: "map"
pose: 
  position: 
    x: -3.2520647048950195
    y: 0.2734736204147339
    z: -0.5139064788818359
  orientation: 
    x: -0.012555854579586702
    y: -0.012301818741356295
    z: 0.6532105509021895
    w: 0.7569722821877233
---
header: 
  seq: 26970
  stamp: 
    secs: 1693405735
    nsecs: 856851687
  frame_id: "map"
pose: 
  position: 
    x: -3.252871036529541
    y: 0.2812332808971405
    z: -0.522844135761261
  orientation: 
    x: -0.01204361223276129
    y: -0.011114692933766306
    z: 0.6536386078266282
    w: 0.7566293865269235
---
header: 
  seq: 26971
  stamp: 
    secs: 1693405735
    nsecs: 887164801
  frame_id: "map"
pose: 
  position: 
    x: -3.253636121749878
    y: 0.28939130902290344
    z: -0.5315870642662048
  orientation: 
    x: -0.013022315409438533
    y: -0.010699257145021863
    z: 0.65421667098738
    w: 0.7561193605560463
---
header: 
  seq: 26972
  stamp: 
    secs: 1693405735
    nsecs: 927224678
  frame_id: "map"
pose: 
  position: 
    x: -3.2544755935668945
    y: 0.30029118061065674
    z: -0.5430191159248352
  orientation: 
    x: -0.01443007117019117
    y: -0.010325597994534369
    z: 0.6547412316354624
    w: 0.7556448516217934
---
header: 
  seq: 26973
  stamp: 
    secs: 1693405735
    nsecs: 956511026
  frame_id: "map"
pose: 
  position: 
    x: -3.2550911903381348
    y: 0.30835390090942383
    z: -0.5515437126159668
  orientation: 
    x: -0.01428716769533878
    y: -0.008992787360484311
    z: 0.6552226304413894
    w: 0.7552471836006638
---
header: 
  seq: 26974
  stamp: 
    secs: 1693405735
    nsecs: 996541873
  frame_id: "map"
pose: 
  position: 
    x: -3.2560393810272217
    y: 0.3190075159072876
    z: -0.5629737973213196
  orientation: 
    x: -0.014896728045769258
    y: -0.00834456567442695
    z: 0.6556293062555706
    w: 0.7548898792799682
---
header: 
  seq: 26975
  stamp: 
    secs: 1693405736
    nsecs:  26795974
  frame_id: "map"
pose: 
  position: 
    x: -3.256709575653076
    y: 0.3270096480846405
    z: -0.571455180644989
  orientation: 
    x: -0.015560425488926
    y: -0.008712523520905034
    z: 0.6557778523576078
    w: 0.7547432867996541
---
header: 
  seq: 26976
  stamp: 
    secs: 1693405736
    nsecs:  57054461
  frame_id: "map"
pose: 
  position: 
    x: -3.2575066089630127
    y: 0.33450061082839966
    z: -0.5797669291496277
  orientation: 
    x: -0.014535177484810025
    y: -0.008214932761188228
    z: 0.6559805113653213
    w: 0.7545931878601437
---
header: 
  seq: 26977
  stamp: 
    secs: 1693405736
    nsecs:  98079428
  frame_id: "map"
pose: 
  position: 
    x: -3.258744716644287
