header:
  frame_id: tomsa_1
  seq: 0
  stamp:
    nsecs: 0
    secs: 0
temperature: 25.257221387129746
variance: 0.20770441177843413
---
header:
  frame_id: tomsa_1
  seq: 1
  stamp:
    nsecs: 250000000
    secs: 0
temperature: 25.23593241080619
variance: 0.564519851279015
---
header:
  frame_id: tomsa_1
  seq: 2
  stamp:
    nsecs: 500000000
    secs: 0
temperature: 26.3120036888052
variance: 0.564519851279015
---
header:
  frame_id: tomsa_1
  seq: 3
  stamp:
    nsecs: 750000000
    secs: 0
temperature: 26.08609099396469
variance: 0.564519851279015
---
header:
  frame_id: tomsa_1
  seq: 4
  stamp:
    nsecs: 0
    secs: 1
temperature: 27.25971421107863
variance: 0.564519851279015
---
header:
  frame_id: tomsa_1
  seq: 5
  stamp:
    nsecs: 250000000
    secs: 1
temperature: 27.767443958465293
variance: 0.7965827761811661
---
header:
  frame_id: tomsa_1
  seq: 6
  stamp:
    nsecs: 500000000
    secs: 1
temperature: 28.131640168127287
variance: 0.6367147598454264
---
header:
  frame_id: tomsa_1
  seq: 7
  stamp:
    nsecs: 750000000
    secs: 1
temperature: 27.90691577743588
variance: 0.5337408048258647
---
header:
  frame_id: tomsa_1
  seq: 8
  stamp:
    nsecs: 0
    secs: 2
temperature: 28.23202883299693
variance: 0.1166607108085131
---
header:
  frame_id: tomsa_1
  seq: 9
  stamp:
    nsecs: 250000000
    secs: 2
temperature: 29.056207194186687
variance: 0.20200333611435153
---
header:
  frame_id: tomsa_1
  seq: 10
  stamp:
    nsecs: 500000000
    secs: 2
temperature: 28.61636411579126
variance: 0.1640276858198449
---
header:
  frame_id: tomsa_1
  seq: 11
  stamp:
    nsecs: 750000000
    secs: 2
temperature: 29.673942160992727
variance: 0.3860758326047933
---
header:
  frame_id: tomsa_1
  seq: 12
  stamp:
    nsecs: 0
    secs: 3
temperature: 29.266024423511226
variance: 0.2520501167011431
---
header:
  frame_id: tomsa_1
  seq: 13
  stamp:
    nsecs: 250000000
    secs: 3
temperature: 29.623034503815706
variance: 0.15162938665137843
---
header:
  frame_id: tomsa_1
  seq: 14
  stamp:
    nsecs: 500000000
    secs: 3
temperature: 30.313535096526092
variance: 0.30855591657762427
---
header:
  frame_id: tomsa_1
  seq: 15
  stamp:
    nsecs: 750000000
    secs: 3
temperature: 30.184178794229577
variance: 0.1485823322928773
---
header:
  frame_id: tomsa_1
  seq: 16
  stamp:
    nsecs: 0
    secs: 4
temperature: 30.54668595215806
variance: 0.22220584008567493
---
header:
  frame_id: tomsa_1
  seq: 17
  stamp:
    nsecs: 250000000
    secs: 4
temperature: 31.555539421231007
variance: 0.40091500339871383
---
header:
  frame_id: tomsa_1
  seq: 18
  stamp:
    nsecs: 500000000
    secs: 4
temperature: 31.84302747575556
variance: 0.4599108184612005
---
header:
  frame_id: tomsa_1
  seq: 19
  stamp:
    nsecs: 750000000
    secs: 4
temperature: 31.515694679775702
variance: 0.41461612947216037
---
header:
  frame_id: tomsa_1
  seq: 20
  stamp:
    nsecs: 0
    secs: 5
temperature: 31.939577691642647
variance: 0.24421119477220388
---
header:
  frame_id: tomsa_1
  seq: 21
  stamp:
    nsecs: 250000000
    secs: 5
temperature: 32.61309420990066
variance: 0.15588812097911298
---
header:
  frame_id: tomsa_1
  seq: 22
  stamp:
    nsecs: 500000000
    secs: 5
temperature: 33.281287351989114
variance: 0.3991853743576452
---
header:
  frame_id: tomsa_1
  seq: 23
  stamp:
    nsecs: 750000000
    secs: 5
temperature: 33.48915837314212
variance: 0.5723211770348785
---
header:
  frame_id: tomsa_1
  seq: 24
  stamp:
    nsecs: 0
    secs: 6
temperature: 34.15305505756975
variance: 0.575355586324305
---
header:
  frame_id: tomsa_1
  seq: 25
  stamp:
    nsecs: 250000000
    secs: 6
temperature: 34.26014893766428
variance: 0.3642501134808464
---
header:
  frame_id: tomsa_1
  seq: 26
  stamp:
    nsecs: 500000000
    secs: 6
temperature: 34.59022649482028
variance: 0.24135025610664634
---
header:
  frame_id: tomsa_1
  seq: 27
  stamp:
    nsecs: 750000000
    secs: 6
temperature: 34.61331901854601
variance: 0.16639671465288075
---
header:
  frame_id: tomsa_1
  seq: 28
  stamp:
    nsecs: 0
    secs: 7
temperature: 35.44261871600553
variance: 0.20496656542749275
---
header:
  frame_id: tomsa_1
  seq: 29
  stamp:
    nsecs: 250000000
    secs: 7
temperature: 34.764063374128476
variance: 0.15256276242674388
---
header:
  frame_id: tomsa_1
  seq: 30
  stamp:
    nsecs: 500000000
    secs: 7
temperature: 34.86891793334423
variance: 0.09645404058800774
---
header:
  frame_id: tomsa_1
  seq: 31
  stamp:
    nsecs: 750000000
    secs: 7
temperature: 34.49424484710626
variance: 0.10812522741549761
---
header:
  frame_id: tomsa_1
  seq: 32
  stamp:
    nsecs: 0
    secs: 8
temperature: 34.75864074658197
variance: 0.09852323560067905
---
header:
  frame_id: tomsa_1
  seq: 33
  stamp:
    nsecs: 250000000
    secs: 8
temperature: 34.7574942892282
variance: 0.015521282264785113
---
header:
  frame_id: tomsa_1
  seq: 34
  stamp:
    nsecs: 500000000
    secs: 8
temperature: 34.90252335561304
variance: 0.020548771317334423
---
header:
  frame_id: tomsa_1
  seq: 35
  stamp:
    nsecs: 750000000
    secs: 8
temperature: 34.907944978363496
variance: 0.022549524266911102
---
header:
  frame_id: tomsa_1
  seq: 36
  stamp:
    nsecs: 0
    secs: 9
temperature: 35.34667096503734
variance: 0.04677399162397443
---
header:
  frame_id: tomsa_1
  seq: 37
  stamp:
    nsecs: 250000000
    secs: 9
temperature: 35.42459087613641
variance: 0.07084567312360182
---
header:
  frame_id: tomsa_1
  seq: 38
  stamp:
    nsecs: 500000000
    secs: 9
temperature: 35.164376253007504
variance: 0.046823717086551433
---
header:
  frame_id: tomsa_1
  seq: 39
  stamp:
    nsecs: 750000000
    secs: 9
temperature: 35.19620288603319
variance: 0.03164329084321493
---
header:
  frame_id: tomsa_1
  seq: 40
  stamp:
    nsecs: 0
    secs: 10
temperature: 34.53134515279545
variance: 0.0995294983087481
---
header:
  frame_id: tomsa_1
  seq: 41
  stamp:
    nsecs: 250000000
    secs: 10
temperature: 34.99507747340971
variance: 0.08920722787649227
---
header:
  frame_id: tomsa_1
  seq: 42
  stamp:
    nsecs: 500000000
    secs: 10
temperature: 34.736387253191175
variance: 0.0652602472220438
---
header:
  frame_id: tomsa_1
  seq: 43
  stamp:
    nsecs: 750000000
    secs: 10
temperature: 35.047679969774734
variance: 0.05625036357237312
---
header:
  frame_id: tomsa_1
  seq: 44
  stamp:
    nsecs: 0
    secs: 11
temperature: 35.4989934198762
variance: 0.1066323529998651
---
header:
  frame_id: tomsa_1
  seq: 45
  stamp:
    nsecs: 250000000
    secs: 11
temperature: 35.07481954049819
variance: 0.06029317325885201
---
header:
  frame_id: tomsa_1
  seq: 46
  stamp:
    nsecs: 500000000
    secs: 11
temperature: 34.85586083660081
variance: 0.06759930204444874
---
header:
  frame_id: tomsa_1
  seq: 47
  stamp:
    nsecs: 750000000
    secs: 11
temperature: 34.615829297266124
variance: 0.08469847736367982
---
header:
  frame_id: tomsa_1
  seq: 48
  stamp:
    nsecs: 0
    secs: 12
temperature: 35.17178370217818
variance: 0.08860451078779111
---
header:
  frame_id: tomsa_1
  seq: 49
  stamp:
    nsecs: 250000000
    secs: 12
temperature: 35.24035846037514
variance: 0.05218021731894499
---
header:
  frame_id: tomsa_1
  seq: 50
  stamp:
    nsecs: 500000000
    secs: 12
temperature: 34.70729473369656
variance: 0.061577201778791765
---
header:
  frame_id: tomsa_1
  seq: 51
  stamp:
    nsecs: 750000000
    secs: 12
temperature: 35.387703610950986
variance: 0.0935670213902127
---
header:
  frame_id: tomsa_1
  seq: 52
  stamp:
    nsecs: 0
    secs: 13
temperature: 35.273424988532426
variance: 0.055235403680447784
---
header:
  frame_id: tomsa_1
  seq: 53
  stamp:
    nsecs: 250000000
    secs: 13
temperature: 35.311289003894665
variance: 0.059223733235165645
---
header:
  frame_id: tomsa_1
  seq: 54
  stamp:
    nsecs: 500000000
    secs: 13
temperature: 34.54962669193638
variance: 0.11999387394730328
---
header:
  frame_id: tomsa_1
  seq: 55
  stamp:
    nsecs: 750000000
    secs: 13
temperature: 35.11991860289989
variance: 0.09135389472899964
---
header:
  frame_id: tomsa_1
  seq: 56
  stamp:
    nsecs: 0
    secs: 14
temperature: 34.863525855674354
variance: 0.08094583606547259
---
header:
  frame_id: tomsa_1
  seq: 57
  stamp:
    nsecs: 250000000
    secs: 14
temperature: 35.324693331168
variance: 0.08649051341217077
---
header:
  frame_id: tomsa_1
  seq: 58
  stamp:
    nsecs: 500000000
    secs: 14
temperature: 34.73496698477857
variance: 0.07566730135731133
---
header:
  frame_id: tomsa_1
  seq: 59
  stamp:
    nsecs: 750000000
    secs: 14
temperature: 34.76759567805026
variance: 0.05110376539655383
---
header:
  frame_id: tomsa_1
  seq: 60
  stamp:
    nsecs: 0
    secs: 15
temperature: 34.51428685655642
variance: 0.07156786494855678
---
header:
  frame_id: tomsa_1
  seq: 61
  stamp:
    nsecs: 250000000
    secs: 15
temperature: 34.94380734199585
variance: 0.07332200607854945
---
header:
  frame_id: tomsa_1
  seq: 62
  stamp:
    nsecs: 500000000
    secs: 15
temperature: 34.530010244948265
variance: 0.025720470723210653
---
header:
  frame_id: tomsa_1
  seq: 63
  stamp:
    nsecs: 750000000
    secs: 15
temperature: 35.03622455487418
variance: 0.044680006426315505
---
header:
  frame_id: tomsa_1
  seq: 64
  stamp:
    nsecs: 0
    secs: 16
temperature: 35.179006511100184
variance: 0.0732771859360752
---
header:
  frame_id: tomsa_1
  seq: 65
  stamp:
    nsecs: 250000000
    secs: 16
temperature: 34.91097958402107
variance: 0.04666653725423573
---
header:
  frame_id: tomsa_1
  seq: 66
  stamp:
    nsecs: 500000000
    secs: 16
temperature: 34.717675233375985
variance: 0.052695323185886545
---
header:
  frame_id: tomsa_1
  seq: 67
  stamp:
    nsecs: 750000000
    secs: 16
temperature: 34.74764531356164
variance: 0.03026019857081478
---
header:
  frame_id: tomsa_1
  seq: 68
  stamp:
    nsecs: 0
    secs: 17
temperature: 35.395977474670474
variance: 0.06793632801677334
---
header:
  frame_id: tomsa_1
  seq: 69
  stamp:
    nsecs: 250000000
    secs: 17
temperature: 35.12739404526084
variance: 0.06446580875301379
---
header:
  frame_id: tomsa_1
  seq: 70
  stamp:
    nsecs: 500000000
    secs: 17
temperature: 34.778357932371456
variance: 0.07093792608058216
---
header:
  frame_id: tomsa_1
  seq: 71
  stamp:
    nsecs: 750000000
    secs: 17
temperature: 34.89297391799353
variance: 0.05932506890069187
---
header:
  frame_id: tomsa_1
  seq: 72
  stamp:
    nsecs: 0
    secs: 18
temperature: 34.97686101112188
variance: 0.04565114739973196
---
header:
  frame_id: tomsa_1
  seq: 73
  stamp:
    nsecs: 250000000
    secs: 18
temperature: 34.72807323135375
variance: 0.020403591950207047
---
header:
  frame_id: tomsa_1
  seq: 74
  stamp:
    nsecs: 500000000
    secs: 18
temperature: 35.110264118621174
variance: 0.018897459958403143
---
header:
  frame_id: tomsa_1
  seq: 75
  stamp:
    nsecs: 750000000
    secs: 18
temperature: 35.22523918975395
variance: 0.029587644900475007
---
header:
  frame_id: tomsa_1
  seq: 76
  stamp:
    nsecs: 0
    secs: 19
temperature: 35.468671574990125
variance: 0.06103701471396925
---
header:
  frame_id: tomsa_1
  seq: 77
  stamp:
    nsecs: 250000000
    secs: 19
temperature: 35.47087537586006
variance: 0.07539207065749778
---
header:
  frame_id: tomsa_1
  seq: 78
  stamp:
    nsecs: 500000000
    secs: 19
temperature: 34.60901765908936
variance: 0.10016390146334295
---
header:
  frame_id: tomsa_1
  seq: 79
  stamp:
    nsecs: 750000000
    secs: 19
temperature: 34.69543123760058
variance: 0.13874047505693937
---
header:
  frame_id: tomsa_1
  seq: 80
  stamp:
    nsecs: 0
    secs: 20
temperature: 34.5643890711636
variance: 0.1738839200348458
---
header:
  frame_id: tomsa_1
  seq: 81
  stamp:
    nsecs: 250000000
    secs: 20
temperature: 35.21361634656294
variance: 0.13256777864954922
---
header:
  frame_id: tomsa_1
  seq: 82
  stamp:
    nsecs: 500000000
    secs: 20
temperature: 35.38040234410379
variance: 0.11360389926290834
---
header:
  frame_id: tomsa_1
  seq: 83
  stamp:
    nsecs: 750000000
    secs: 20
temperature: 34.91458225376763
variance: 0.09388546948943412
---
header:
  frame_id: tomsa_1
  seq: 84
  stamp:
    nsecs: 0
    secs: 21
temperature: 35.007729294050144
variance: 0.07722951604163673
---
header:
  frame_id: tomsa_1
  seq: 85
  stamp:
    nsecs: 250000000
    secs: 21
temperature: 34.88539132358809
variance: 0.03571058525971419
---
header:
  frame_id: tomsa_1
  seq: 86
  stamp:
    nsecs: 500000000
    secs: 21
temperature: 35.32345184335782
variance: 0.04349599910852559
---
header:
  frame_id: tomsa_1
  seq: 87
  stamp:
    nsecs: 750000000
    secs: 21
temperature: 35.30039197224815
variance: 0.035620201083070284
---
header:
  frame_id: tomsa_1
  seq: 88
  stamp:
    nsecs: 0
    secs: 22
temperature: 35.20256233064758
variance: 0.02910781353283473
---
header:
  frame_id: tomsa_1
  seq: 89
  stamp:
    nsecs: 250000000
    secs: 22
temperature: 35.0581252319573
variance: 0.026769085541998184
---
header:
  frame_id: tomsa_1
  seq: 90
  stamp:
    nsecs: 500000000
    secs: 22
temperature: 34.59790400874596
variance: 0.07087977560302303
---
header:
  frame_id: tomsa_1
  seq: 91
  stamp:
    nsecs: 750000000
    secs: 22
temperature: 35.04211569513584
variance: 0.05800242291480086
---
header:
  frame_id: tomsa_1
  seq: 92
  stamp:
    nsecs: 0
    secs: 23
temperature: 34.55607875372781
variance: 0.06918294913435749
---
header:
  frame_id: tomsa_1
  seq: 93
  stamp:
    nsecs: 250000000
    secs: 23
temperature: 34.92520818004787
variance: 0.04696538769045237
---
header:
  frame_id: tomsa_1
  seq: 94
  stamp:
    nsecs: 500000000
    secs: 23
temperature: 35.033124562804325
variance: 0.04484294497868731
---
header:
  frame_id: tomsa_1
  seq: 95
  stamp:
    nsecs: 750000000
    secs: 23
temperature: 34.86443821477763
variance: 0.03137032863571633
---
header:
  frame_id: tomsa_1
  seq: 96
  stamp:
    nsecs: 0
    secs: 24
temperature: 34.98948794346325
variance: 0.028489032633291205
---
header:
  frame_id: tomsa_1
  seq: 97
  stamp:
    nsecs: 250000000
    secs: 24
temperature: 35.37017209096526
variance: 0.031109943498990923
---
header:
  frame_id: tomsa_1
  seq: 98
  stamp:
    nsecs: 500000000
    secs: 24
temperature: 35.0221304237136
variance: 0.028298844825544473
---
header:
  frame_id: tomsa_1
  seq: 99
  stamp:
    nsecs: 750000000
    secs: 24
temperature: 34.69558392247202
variance: 0.04959932539503193
---
header:
  frame_id: tomsa_1
  seq: 100
  stamp:
    nsecs: 0
    secs: 25
temperature: 35.248856314183755
variance: 0.05418819120739062
---
header:
  frame_id: tomsa_1
  seq: 101
  stamp:
    nsecs: 250000000
    secs: 25
temperature: 34.68969201916178
variance: 0.07765340590072713
---
header:
  frame_id: tomsa_1
  seq: 102
  stamp:
    nsecs: 500000000
    secs: 25
temperature: 34.98688391654982
variance: 0.0452165146519268
---
header:
  frame_id: tomsa_1
  seq: 103
  stamp:
    nsecs: 750000000
    secs: 25
temperature: 34.52116634072081
variance: 0.06663463861439375
---
header:
  frame_id: tomsa_1
  seq: 104
  stamp:
    nsecs: 0
    secs: 26
temperature: 34.542866985897355
variance: 0.07848176827142525
---
header:
  frame_id: tomsa_1
  seq: 105
  stamp:
    nsecs: 250000000
    secs: 26
temperature: 34.87494532194749
variance: 0.03340323822758141
---
header:
  frame_id: tomsa_1
  seq: 106
  stamp:
    nsecs: 500000000
    secs: 26
temperature: 35.37197842855773
variance: 0.09876509345365425
---
header:
  frame_id: tomsa_1
  seq: 107
  stamp:
    nsecs: 750000000
    secs: 26
temperature: 34.80282207737345
variance: 0.0948121090853637
---
header:
  frame_id: tomsa_1
  seq: 108
  stamp:
    nsecs: 0
    secs: 27
temperature: 34.568029078134344
variance: 0.08951016403665837
---
header:
  frame_id: tomsa_1
  seq: 109
  stamp:
    nsecs: 250000000
    secs: 27
temperature: 34.75380062915875
variance: 0.07222306058551611
---
header:
  frame_id: tomsa_1
  seq: 110
  stamp:
    nsecs: 500000000
    secs: 27
temperature: 34.86910358883614
variance: 0.07222704810190507
---
header:
  frame_id: tomsa_1
  seq: 111
  stamp:
    nsecs: 750000000
    secs: 27
temperature: 34.93855042552565
variance: 0.015801576002473037
---
header:
  frame_id: tomsa_1
  seq: 112
  stamp:
    nsecs: 0
    secs: 28
temperature: 35.30892077670602
variance: 0.06009541459742886
---
header:
  frame_id: tomsa_1
  seq: 113
  stamp:
    nsecs: 250000000
    secs: 28
temperature: 34.85383772746723
variance: 0.03662156589457695
---
header:
  frame_id: tomsa_1
  seq: 114
  stamp:
    nsecs: 500000000
    secs: 28
temperature: 35.24850035355373
variance: 0.037974646690869716
---
header:
  frame_id: tomsa_1
  seq: 115
  stamp:
    nsecs: 750000000
    secs: 28
temperature: 35.366359724813414
variance: 0.04279275409090041
---
header:
  frame_id: tomsa_1
  seq: 116
  stamp:
    nsecs: 0
    secs: 29
temperature: 35.074277108524804
variance: 0.03462783300679965
---
header:
  frame_id: tomsa_1
  seq: 117
  stamp:
    nsecs: 250000000
    secs: 29
temperature: 34.86550855329451
variance: 0.041513714602419496
---
header:
  frame_id: tomsa_1
  seq: 118
  stamp:
    nsecs: 500000000
    secs: 29
temperature: 34.71676549724969
variance: 0.057013176671264376
---
header:
  frame_id: tomsa_1
  seq: 119
  stamp:
    nsecs: 750000000
    secs: 29
temperature: 35.00745915541866
variance: 0.0475834881486894
---
header:
  frame_id: tomsa_1
  seq: 120
  stamp:
    nsecs: 0
    secs: 30
temperature: 34.70117530130121
variance: 0.022516160141533497
---
header:
  frame_id: tomsa_1
  seq: 121
  stamp:
    nsecs: 250000000
    secs: 30
temperature: 34.56871094054225
variance: 0.022715652876153847
---
header:
  frame_id: tomsa_1
  seq: 122
  stamp:
    nsecs: 500000000
    secs: 30
temperature: 34.73145019922147
variance: 0.02057279324901431
---
header:
  frame_id: tomsa_1
  seq: 123
  stamp:
    nsecs: 750000000
    secs: 30
temperature: 35.242222333894034
variance: 0.058791583754405484
---
header:
  frame_id: tomsa_1
  seq: 124
  stamp:
    nsecs: 0
    secs: 31
temperature: 35.3730306544524
variance: 0.10316964878579918
---
header:
  frame_id: tomsa_1
  seq: 125
  stamp:
    nsecs: 250000000
    secs: 31
temperature: 34.8409591895454
variance: 0.09387519276488365
---
header:
  frame_id: tomsa_1
  seq: 126
  stamp:
    nsecs: 500000000
    secs: 31
temperature: 34.50197336651414
variance: 0.10480036728420421
---
header:
  frame_id: tomsa_1
  seq: 127
  stamp:
    nsecs: 750000000
    secs: 31
temperature: 35.03855849045156
variance: 0.09452653443473426
---
header:
  frame_id: tomsa_1
  seq: 128
  stamp:
    nsecs: 0
    secs: 32
temperature: 34.921167760439104
variance: 0.07982843806070403
---
header:
  frame_id: tomsa_1
  seq: 129
  stamp:
    nsecs: 250000000
    secs: 32
temperature: 35.08792203099849
variance: 0.04289554535024763
---
header:
  frame_id: tomsa_1
  seq: 130
  stamp:
    nsecs: 500000000
    secs: 32
temperature: 34.539597928950144
variance: 0.06190559234959847
---
header:
  frame_id: tomsa_1
  seq: 131
  stamp:
    nsecs: 750000000
    secs: 32
temperature: 35.21890975755832
variance: 0.053561601995731165
---
header:
  frame_id: tomsa_1
  seq: 132
  stamp:
    nsecs: 0
    secs: 33
temperature: 35.41007510121858
variance: 0.08713688681447046
---
header:
  frame_id: tomsa_1
  seq: 133
  stamp:
    nsecs: 250000000
    secs: 33
temperature: 35.16992393446634
variance: 0.08565785367006681
---
header:
  frame_id: tomsa_1
  seq: 134
  stamp:
    nsecs: 500000000
    secs: 33
temperature: 35.24649628486504
variance: 0.08984839918479533
---
header:
  frame_id: tomsa_1
  seq: 135
  stamp:
    nsecs: 750000000
    secs: 33
temperature: 35.21708563456594
variance: 0.006813449073524829
---
header:
  frame_id: tomsa_1
  seq: 136
  stamp:
    nsecs: 0
    secs: 34
temperature: 35.21255055364752
variance: 0.006905357545065623
---
header:
  frame_id: tomsa_1
  seq: 137
  stamp:
    nsecs: 250000000
    secs: 34
temperature: 35.09871215197435
variance: 0.002633007056753306
---
header:
  frame_id: tomsa_1
  seq: 138
  stamp:
    nsecs: 500000000
    secs: 34
temperature: 35.37311887886444
variance: 0.007692414898056612
---
header:
  frame_id: tomsa_1
  seq: 139
  stamp:
    nsecs: 750000000
    secs: 34
temperature: 35.43888699972354
variance: 0.014915521894309813
---
header:
  frame_id: tomsa_1
  seq: 140
  stamp:
    nsecs: 0
    secs: 35
temperature: 35.316231109997354
variance: 0.014466312820059177
---
header:
  frame_id: tomsa_1
  seq: 141
  stamp:
    nsecs: 250000000
    secs: 35
temperature: 34.688757091128345
variance: 0.07415085358827725
---
header:
  frame_id: tomsa_1
  seq: 142
  stamp:
    nsecs: 500000000
    secs: 35
temperature: 35.44548767122927
variance: 0.08168019809378417
---
header:
  frame_id: tomsa_1
  seq: 143
  stamp:
    nsecs: 750000000
    secs: 35
temperature: 34.73251117848024
variance: 0.11643202593660473
---
header:
  frame_id: tomsa_1
  seq: 144
  stamp:
    nsecs: 0
    secs: 36
temperature: 35.271520773960724
variance: 0.09985837124808891
---
header:
  frame_id: tomsa_1
  seq: 145
  stamp:
    nsecs: 250000000
    secs: 36
temperature: 35.080384553409566
variance: 0.08750086805088172
---
header:
  frame_id: tomsa_1
  seq: 146
  stamp:
    nsecs: 500000000
    secs: 36
temperature: 34.88692617157593
variance: 0.06564618494735658
---
header:
  frame_id: tomsa_1
  seq: 147
  stamp:
    nsecs: 750000000
    secs: 36
temperature: 34.912933507262856
variance: 0.033884668260625604
---
header:
  frame_id: tomsa_1
  seq: 148
  stamp:
    nsecs: 0
    secs: 37
temperature: 35.00466246346619
variance: 0.019135859972576275
---
header:
  frame_id: tomsa_1
  seq: 149
  stamp:
    nsecs: 250000000
    secs: 37
temperature: 35.28561798466491
variance: 0.020522315932958807
---
header:
  frame_id: tomsa_1
  seq: 150
  stamp:
    nsecs: 500000000
    secs: 37
temperature: 34.627475907774844
variance: 0.044958339016631974
---
header:
  frame_id: tomsa_1
  seq: 151
  stamp:
    nsecs: 750000000
    secs: 37
temperature: 35.351061913184495
variance: 0.06891837408451676
---
header:
  frame_id: tomsa_1
  seq: 152
  stamp:
    nsecs: 0
    secs: 38
temperature: 34.9529976786324
variance: 0.06719735863753187
---
header:
  frame_id: tomsa_1
  seq: 153
  stamp:
    nsecs: 250000000
    secs: 38
temperature: 34.58296725815221
variance: 0.10234629636099421
---
header:
  frame_id: tomsa_1
  seq: 154
  stamp:
    nsecs: 500000000
    secs: 38
temperature: 35.003343164110454
variance: 0.07833217157914936
---
header:
  frame_id: tomsa_1
  seq: 155
  stamp:
    nsecs: 750000000
    secs: 38
temperature: 35.24457394953786
variance: 0.0711111223502496
---
header:
  frame_id: tomsa_1
  seq: 156
  stamp:
    nsecs: 0
    secs: 39
temperature: 34.629950237710055
variance: 0.060834285762390236
---
header:
  frame_id: tomsa_1
  seq: 157
  stamp:
    nsecs: 250000000
    secs: 39
temperature: 34.800659519410985
variance: 0.06026783415214852
---
header:
  frame_id: tomsa_1
  seq: 158
  stamp:
    nsecs: 500000000
    secs: 39
temperature: 34.80769089738652
variance: 0.04413788038147521
---
header:
  frame_id: tomsa_1
  seq: 159
  stamp:
    nsecs: 750000000
    secs: 39
temperature: 34.75610623142474
variance: 0.04342535962127132
---
header:
  frame_id: tomsa_1
  seq: 160
  stamp:
    nsecs: 0
    secs: 40
temperature: 34.59700318693967
variance: 0.00774434596912415
---
header:
  frame_id: tomsa_1
  seq: 161
  stamp:
    nsecs: 250000000
    secs: 40
temperature: 34.71035172633593
variance: 0.005937847327700626
---
header:
  frame_id: tomsa_1
  seq: 162
  stamp:
    nsecs: 500000000
    secs: 40
temperature: 34.678412687103425
variance: 0.00508708398509435
---
header:
  frame_id: tomsa_1
  seq: 163
  stamp:
    nsecs: 750000000
    secs: 40
temperature: 34.963352318138774
variance: 0.015052062393303483
---
header:
  frame_id: tomsa_1
  seq: 164
  stamp:
    nsecs: 0
    secs: 41
temperature: 35.16654904733847
variance: 0.04447886315092138
---
header:
  frame_id: tomsa_1
  seq: 165
  stamp:
    nsecs: 250000000
    secs: 41
temperature: 34.54707048818129
variance: 0.04939431163217346
---
header:
  frame_id: tomsa_1
  seq: 166
  stamp:
    nsecs: 500000000
    secs: 41
temperature: 34.85631171823727
variance: 0.046801388989658424
---
header:
  frame_id: tomsa_1
  seq: 167
  stamp:
    nsecs: 750000000
    secs: 41
temperature: 35.28719063395832
variance: 0.06618113216561045
---
header:
  frame_id: tomsa_1
  seq: 168
  stamp:
    nsecs: 0
    secs: 42
temperature: 34.720690071061945
variance: 0.07567479967361614
---
header:
  frame_id: tomsa_1
  seq: 169
  stamp:
    nsecs: 250000000
    secs: 42
temperature: 34.819415956870195
variance: 0.06010471150577412
---
header:
  frame_id: tomsa_1
  seq: 170
  stamp:
    nsecs: 500000000
    secs: 42
temperature: 35.307723646184655
variance: 0.06168564625068064
---
header:
  frame_id: tomsa_1
  seq: 171
  stamp:
    nsecs: 750000000
    secs: 42
temperature: 35.28006337581228
variance: 0.06635470744730274
---
header:
  frame_id: tomsa_1
  seq: 172
  stamp:
    nsecs: 0
    secs: 43
temperature: 34.86607455676922
variance: 0.06033654326396219
---
header:
  frame_id: tomsa_1
  seq: 173
  stamp:
    nsecs: 250000000
    secs: 43
temperature: 35.455332631611114
variance: 0.06496584162336899
---
header:
  frame_id: tomsa_1
  seq: 174
  stamp:
    nsecs: 500000000
    secs: 43
temperature: 34.60403741879489
variance: 0.10049963826501732
---
header:
  frame_id: tomsa_1
  seq: 175
  stamp:
    nsecs: 750000000
    secs: 43
temperature: 35.40492847666505
variance: 0.10998524538001953
---
header:
  frame_id: tomsa_1
  seq: 176
  stamp:
    nsecs: 0
    secs: 44
temperature: 34.79160151008762
variance: 0.11729432739366837
---
header:
  frame_id: tomsa_1
  seq: 177
  stamp:
    nsecs: 250000000
    secs: 44
temperature: 34.503261374503545
variance: 0.1613319579740311
---
header:
  frame_id: tomsa_1
  seq: 178
  stamp:
    nsecs: 500000000
    secs: 44
temperature: 35.237653130193095
variance: 0.12507277443013487
---
header:
  frame_id: tomsa_1
  seq: 179
  stamp:
    nsecs: 750000000
    secs: 44
temperature: 35.28400254295858
variance: 0.11629499215201085
---
header:
  frame_id: tomsa_1
  seq: 180
  stamp:
    nsecs: 0
    secs: 45
temperature: 34.57735273911826
variance: 0.10649359070649093
---
header:
  frame_id: tomsa_1
  seq: 181
  stamp:
    nsecs: 250000000
    secs: 45
temperature: 35.068230574463165
variance: 0.10909156655819992
---
header:
  frame_id: tomsa_1
  seq: 182
  stamp:
    nsecs: 500000000
    secs: 45
temperature: 34.57404750153625
variance: 0.09769431356740772
---
header:
  frame_id: tomsa_1
  seq: 183
  stamp:
    nsecs: 750000000
    secs: 45
temperature: 34.996436666254475
variance: 0.07908115900194204
---
header:
  frame_id: tomsa_1
  seq: 184
  stamp:
    nsecs: 0
    secs: 46
temperature: 34.54005828723315
variance: 0.053367221030931125
---
header:
  frame_id: tomsa_1
  seq: 185
  stamp:
    nsecs: 250000000
    secs: 46
temperature: 35.07558369397643
variance: 0.05843322687113284
---
header:
  frame_id: tomsa_1
  seq: 186
  stamp:
    nsecs: 500000000
    secs: 46
temperature: 35.42300025723953
variance: 0.10941605731956563
---
header:
  frame_id: tomsa_1
  seq: 187
  stamp:
    nsecs: 750000000
    secs: 46
temperature: 34.79067384436014
variance: 0.08678924149066128
---
header:
  frame_id: tomsa_1
  seq: 188
  stamp:
    nsecs: 0
    secs: 47
temperature: 34.725556235065085
variance: 0.09513951608608634
---
header:
  frame_id: tomsa_1
  seq: 189
  stamp:
    nsecs: 250000000
    secs: 47
temperature: 34.65029514862331
variance: 0.08072840853605139
---
header:
  frame_id: tomsa_1
  seq: 190
  stamp:
    nsecs: 500000000
    secs: 47
temperature: 35.42805905659522
variance: 0.12070644659165067
---
header:
  frame_id: tomsa_1
  seq: 191
  stamp:
    nsecs: 750000000
    secs: 47
temperature: 34.55421077910991
variance: 0.09569658386399241
---
header:
  frame_id: tomsa_1
  seq: 192
  stamp:
    nsecs: 0
    secs: 48
temperature: 35.2922865035149
variance: 0.12811277933591575
---
header:
  frame_id: tomsa_1
  seq: 193
  stamp:
    nsecs: 250000000
    secs: 48
temperature: 34.61369330381892
variance: 0.1392664300524556
---
header:
  frame_id: tomsa_1
  seq: 194
  stamp:
    nsecs: 500000000
    secs: 48
temperature: 35.48249248731271
variance: 0.16438718078319195
---
header:
  frame_id: tomsa_1
  seq: 195
  stamp:
    nsecs: 750000000
    secs: 48
temperature: 34.80143443722234
variance: 0.13850488130199598
---
header:
  frame_id: tomsa_1
  seq: 196
  stamp:
    nsecs: 0
    secs: 49
temperature: 35.021094772951095
variance: 0.09968644182486477
---
header:
  frame_id: tomsa_1
  seq: 197
  stamp:
    nsecs: 250000000
    secs: 49
temperature: 35.35785682699926
variance: 0.10693364987645486
---
header:
  frame_id: tomsa_1
  seq: 198
  stamp:
    nsecs: 500000000
    secs: 49
temperature: 35.223989207935574
variance: 0.05871961428399033
---
header:
  frame_id: tomsa_1
  seq: 199
  stamp:
    nsecs: 750000000
    secs: 49
temperature: 35.4620797384967
variance: 0.05629495661501016
---
header:
  frame_id: tomsa_1
  seq: 200
  stamp:
    nsecs: 0
    secs: 50
temperature: 35.3755718968486
variance: 0.023637656056018204
---
header:
  frame_id: tomsa_1
  seq: 201
  stamp:
    nsecs: 250000000
    secs: 50
temperature: 34.938780463966154
variance: 0.033513708386220184
---
header:
  frame_id: tomsa_1
  seq: 202
  stamp:
    nsecs: 500000000
    secs: 50
temperature: 34.90994308320829
variance: 0.05016970297512992
---
header:
  frame_id: tomsa_1
  seq: 203
  stamp:
    nsecs: 750000000
    secs: 50
temperature: 34.64826254904549
variance: 0.09355055328248199
---
header:
  frame_id: tomsa_1
  seq: 204
  stamp:
    nsecs: 0
    secs: 51
temperature: 34.57456584829601
variance: 0.07929827440785023
---
header:
  frame_id: tomsa_1
  seq: 205
  stamp:
    nsecs: 250000000
    secs: 51
temperature: 34.68130393279486
variance: 0.02141300447893596
---
header:
  frame_id: tomsa_1
  seq: 206
  stamp:
    nsecs: 500000000
    secs: 51
temperature: 35.2132767133657
variance: 0.05413381254704421
---
header:
  frame_id: tomsa_1
  seq: 207
  stamp:
    nsecs: 750000000
    secs: 51
temperature: 35.35231666891507
variance: 0.10393129254745533
---
header:
  frame_id: tomsa_1
  seq: 208
  stamp:
    nsecs: 0
    secs: 52
temperature: 34.551327276681945
variance: 0.11496084771592188
---
header:
  frame_id: tomsa_1
  seq: 209
  stamp:
    nsecs: 250000000
    secs: 52
temperature: 34.98664068164289
variance: 0.09268205376606116
---
header:
  frame_id: tomsa_1
  seq: 210
  stamp:
    nsecs: 500000000
    secs: 52
temperature: 34.99823002638709
variance: 0.07380610240476729
---
header:
  frame_id: tomsa_1
  seq: 211
  stamp:
    nsecs: 750000000
    secs: 52
temperature: 35.201032068527375
variance: 0.07288520430505728
---
header:
  frame_id: tomsa_1
  seq: 212
  stamp:
    nsecs: 0
    secs: 53
temperature: 34.75175379359647
variance: 0.05026027733087646
---
header:
  frame_id: tomsa_1
  seq: 213
  stamp:
    nsecs: 250000000
    secs: 53
temperature: 34.89265732225608
variance: 0.021597090241423186
---
header:
  frame_id: tomsa_1
  seq: 214
  stamp:
    nsecs: 500000000
    secs: 53
temperature: 35.3964633403067
variance: 0.0518431444833594
---
header:
  frame_id: tomsa_1
  seq: 215
  stamp:
    nsecs: 750000000
    secs: 53
temperature: 35.30783376772982
variance: 0.06101289059520691
---
header:
  frame_id: tomsa_1
  seq: 216
  stamp:
    nsecs: 0
    secs: 54
temperature: 34.523861180186174
variance: 0.1097107805198037
---
header:
  frame_id: tomsa_1
  seq: 217
  stamp:
    nsecs: 250000000
    secs: 54
temperature: 34.83742007174264
variance: 0.10325176327701766
---
header:
  frame_id: tomsa_1
  seq: 218
  stamp:
    nsecs: 500000000
    secs: 54
temperature: 35.15947766460717
variance: 0.10407766004740701
---
header:
  frame_id: tomsa_1
  seq: 219
  stamp:
    nsecs: 750000000
    secs: 54
temperature: 34.63648618173105
variance: 0.08964986700419798
---
header:
  frame_id: tomsa_1
  seq: 220
  stamp:
    nsecs: 0
    secs: 55
temperature: 34.70682294838628
variance: 0.0477200666906014
---
header:
  frame_id: tomsa_1
  seq: 221
  stamp:
    nsecs: 250000000
    secs: 55
temperature: 35.13055669967484
variance: 0.04619744989830857
---
header:
  frame_id: tomsa_1
  seq: 222
  stamp:
    nsecs: 500000000
    secs: 55
temperature: 34.79738291272157
variance: 0.04736249127024551
---
header:
  frame_id: tomsa_1
  seq: 223
  stamp:
    nsecs: 750000000
    secs: 55
temperature: 35.32530297723651
variance: 0.0698923479168416
---
header:
  frame_id: tomsa_1
  seq: 224
  stamp:
    nsecs: 0
    secs: 56
temperature: 34.858925761150374
variance: 0.05264453147815423
---
header:
  frame_id: tomsa_1
  seq: 225
  stamp:
    nsecs: 250000000
    secs: 56
temperature: 35.352777348343395
variance: 0.05300793212600766
---
header:
  frame_id: tomsa_1
  seq: 226
  stamp:
    nsecs: 500000000
    secs: 56
temperature: 35.34984742211616
variance: 0.06399736641372365
---
header:
  frame_id: tomsa_1
  seq: 227
  stamp:
    nsecs: 750000000
    secs: 56
temperature: 35.483785662632236
variance: 0.04617745276432418
---
header:
  frame_id: tomsa_1
  seq: 228
  stamp:
    nsecs: 0
    secs: 57
temperature: 34.528831393267765
variance: 0.13137235135232694
---
header:
  frame_id: tomsa_1
  seq: 229
  stamp:
    nsecs: 250000000
    secs: 57
temperature: 35.3039451361503
variance: 0.11750554649668758
---
header:
  frame_id: tomsa_1
  seq: 230
  stamp:
    nsecs: 500000000
    secs: 57
temperature: 35.47855231659822
variance: 0.12752980860613983
---
header:
  frame_id: tomsa_1
  seq: 231
  stamp:
    nsecs: 750000000
    secs: 57
temperature: 34.833279935970374
variance: 0.14525261059878336
---
header:
  frame_id: tomsa_1
  seq: 232
  stamp:
    nsecs: 0
    secs: 58
temperature: 35.12186620768093
variance: 0.1143679979563691
---
header:
  frame_id: tomsa_1
  seq: 233
  stamp:
    nsecs: 250000000
    secs: 58
temperature: 35.13226265095484
variance: 0.04603759016715727
---
header:
  frame_id: tomsa_1
  seq: 234
  stamp:
    nsecs: 500000000
    secs: 58
temperature: 34.64371800497632
variance: 0.08145929490185762
---
header:
  frame_id: tomsa_1
  seq: 235
  stamp:
    nsecs: 750000000
    secs: 58
temperature: 34.571802986900344
variance: 0.05464970533062339
---
header:
  frame_id: tomsa_1
  seq: 236
  stamp:
    nsecs: 0
    secs: 59
temperature: 35.33578747436616
variance: 0.08956332488975531
---
header:
  frame_id: tomsa_1
  seq: 237
  stamp:
    nsecs: 250000000
    secs: 59
temperature: 34.743335936244
variance: 0.088145103065817
---
header:
  frame_id: tomsa_1
  seq: 238
  stamp:
    nsecs: 500000000
    secs: 59
temperature: 34.6646134578799
variance: 0.07695490079281044
---
header:
  frame_id: tomsa_1
  seq: 239
  stamp:
    nsecs: 750000000
    secs: 59
temperature: 35.39590292978511
variance: 0.12291051215893364
---
header:
  frame_id: tomsa_1
  seq: 240
  stamp:
    nsecs: 0
    secs: 60
temperature: 35.09856170456503
variance: 0.0892438700856706
---
header:
  frame_id: tomsa_1
  seq: 241
  stamp:
    nsecs: 250000000
    secs: 60
temperature: 35.484399829857814
variance: 0.10990646332899608
---
header:
  frame_id: tomsa_1
  seq: 242
  stamp:
    nsecs: 500000000
    secs: 60
temperature: 35.09879603598548
variance: 0.08262947963608522
---
header:
  frame_id: tomsa_1
  seq: 243
  stamp:
    nsecs: 750000000
    secs: 60
temperature: 34.96825096898097
variance: 0.03861584640249157
---
header:
  frame_id: tomsa_1
  seq: 244
  stamp:
    nsecs: 0
    secs: 61
temperature: 35.32243213649946
variance: 0.03399211429862941
---
header:
  frame_id: tomsa_1
  seq: 245
  stamp:
    nsecs: 250000000
    secs: 61
temperature: 34.51735549835292
variance: 0.1103414336857004
---
header:
  frame_id: tomsa_1
  seq: 246
  stamp:
    nsecs: 500000000
    secs: 61
temperature: 34.60279744029811
variance: 0.09147091787569975
---
header:
  frame_id: tomsa_1
  seq: 247
  stamp:
    nsecs: 750000000
    secs: 61
temperature: 35.2525894490344
variance: 0.10736620441110348
---
header:
  frame_id: tomsa_1
  seq: 248
  stamp:
    nsecs: 0
    secs: 62
temperature: 35.45279754088576
variance: 0.15182519348778736
---
header:
  frame_id: tomsa_1
  seq: 249
  stamp:
    nsecs: 250000000
    secs: 62
temperature: 34.5486960747912
variance: 0.15698034964217633
---
header:
  frame_id: tomsa_1
  seq: 250
  stamp:
    nsecs: 500000000
    secs: 62
temperature: 34.57430194979496
variance: 0.14935605982844194
---
header:
  frame_id: tomsa_1
  seq: 251
  stamp:
    nsecs: 750000000
    secs: 62
temperature: 35.064827929211106
variance: 0.13112861419616798
---
header:
  frame_id: tomsa_1
  seq: 252
  stamp:
    nsecs: 0
    secs: 63
temperature: 35.34362075232452
variance: 0.14242958179456647
---
header:
  frame_id: tomsa_1
  seq: 253
  stamp:
    nsecs: 250000000
    secs: 63
temperature: 35.39530828553769
variance: 0.13247352381129934
---
header:
  frame_id: tomsa_1
  seq: 254
  stamp:
    nsecs: 500000000
    secs: 63
temperature: 34.955255708905526
variance: 0.08790953520631825
---
header:
  frame_id: tomsa_1
  seq: 255
  stamp:
    nsecs: 750000000
    secs: 63
temperature: 35.2969688651463
variance: 0.02914393557220764
---
header:
  frame_id: tomsa_1
  seq: 256
  stamp:
    nsecs: 0
    secs: 64
temperature: 34.884451952673786
variance: 0.0449101501576226
---
header:
  frame_id: tomsa_1
  seq: 257
  stamp:
    nsecs: 250000000
    secs: 64
temperature: 35.17364847584533
variance: 0.0380765352026964
---
header:
  frame_id: tomsa_1
  seq: 258
  stamp:
    nsecs: 500000000
    secs: 64
temperature: 34.84772950746341
variance: 0.030377552025006006
---
header:
  frame_id: tomsa_1
  seq: 259
  stamp:
    nsecs: 750000000
    secs: 64
temperature: 34.860939905283104
variance: 0.03468142791431635
---
header:
  frame_id: tomsa_1
  seq: 260
  stamp:
    nsecs: 0
    secs: 65
temperature: 35.38213709592483
variance: 0.04552465242749818
---
header:
  frame_id: tomsa_1
  seq: 261
  stamp:
    nsecs: 250000000
    secs: 65
temperature: 34.50656295237943
variance: 0.09034002580102371
---
header:
  frame_id: tomsa_1
  seq: 262
  stamp:
    nsecs: 500000000
    secs: 65
temperature: 35.07337379686438
variance: 0.08314692130220099
---
header:
  frame_id: tomsa_1
  seq: 263
  stamp:
    nsecs: 750000000
    secs: 65
temperature: 35.244379338859154
variance: 0.09460863992383962
---
header:
  frame_id: tomsa_1
  seq: 264
  stamp:
    nsecs: 0
    secs: 66
temperature: 35.27363326831991
variance: 0.09667848411195482
---
header:
  frame_id: tomsa_1
  seq: 265
  stamp:
    nsecs: 250000000
    secs: 66
temperature: 34.49988321901518
variance: 0.12024586559406644
---
header:
  frame_id: tomsa_1
  seq: 266
  stamp:
    nsecs: 500000000
    secs: 66
temperature: 34.57402189911048
variance: 0.10982966497853135
---
header:
  frame_id: tomsa_1
  seq: 267
  stamp:
    nsecs: 750000000
    secs: 66
temperature: 35.33671623163862
variance: 0.13570595241626698
---
header:
  frame_id: tomsa_1
  seq: 268
  stamp:
    nsecs: 0
    secs: 67
temperature: 34.89016793609236
variance: 0.11913339460477998
---
header:
  frame_id: tomsa_1
  seq: 269
  stamp:
    nsecs: 250000000
    secs: 67
temperature: 35.02019874769378
variance: 0.09304231585264747
---
header:
  frame_id: tomsa_1
  seq: 270
  stamp:
    nsecs: 500000000
    secs: 67
temperature: 34.578440728162754
variance: 0.08258186867402903
---
header:
  frame_id: tomsa_1
  seq: 271
  stamp:
    nsecs: 750000000
    secs: 67
temperature: 34.97749619985612
variance: 0.05926145931939834
---
header:
  frame_id: tomsa_1
  seq: 272
  stamp:
    nsecs: 0
    secs: 68
temperature: 35.07343257682764
variance: 0.030742700098428638
---
header:
  frame_id: tomsa_1
  seq: 273
  stamp:
    nsecs: 250000000
    secs: 68
temperature: 35.338129909087066
variance: 0.05966410836291351
---
header:
  frame_id: tomsa_1
  seq: 274
  stamp:
    nsecs: 500000000
    secs: 68
temperature: 35.16515427002112
variance: 0.06433987047689957
---
header:
  frame_id: tomsa_1
  seq: 275
  stamp:
    nsecs: 750000000
    secs: 68
temperature: 34.822934015980174
variance: 0.03008218554388652
---
header:
  frame_id: tomsa_1
  seq: 276
  stamp:
    nsecs: 0
    secs: 69
temperature: 34.794407830282594
variance: 0.04261777327870981
---
header:
  frame_id: tomsa_1
  seq: 277
  stamp:
    nsecs: 250000000
    secs: 69
temperature: 35.19894348435917
variance: 0.04687636938611858
---
header:
  frame_id: tomsa_1
  seq: 278
  stamp:
    nsecs: 500000000
    secs: 69
temperature: 34.70326710232052
variance: 0.04172867715104771
---
header:
  frame_id: tomsa_1
  seq: 279
  stamp:
    nsecs: 750000000
    secs: 69
temperature: 35.06122089465203
variance: 0.03396944457020094
---
header:
  frame_id: tomsa_1
  seq: 280
  stamp:
    nsecs: 0
    secs: 70
temperature: 34.7534729154268
variance: 0.03733150325311884
---
header:
  frame_id: tomsa_1
  seq: 281
  stamp:
    nsecs: 250000000
    secs: 70
temperature: 34.57654600507927
variance: 0.05432466855721489
---
header:
  frame_id: tomsa_1
  seq: 282
  stamp:
    nsecs: 500000000
    secs: 70
temperature: 34.96341222011642
variance: 0.031144539024923444
---
header:
  frame_id: tomsa_1
  seq: 283
  stamp:
    nsecs: 750000000
    secs: 70
temperature: 35.395933605557616
variance: 0.07789949366386424
---
header:
  frame_id: tomsa_1
  seq: 284
  stamp:
    nsecs: 0
    secs: 71
temperature: 34.59109717856577
variance: 0.09236909678358837
---
header:
  frame_id: tomsa_1
  seq: 285
  stamp:
    nsecs: 250000000
    secs: 71
temperature: 34.695690619097235
variance: 0.09527513922549698
---
header:
  frame_id: tomsa_1
  seq: 286
  stamp:
    nsecs: 500000000
    secs: 71
temperature: 35.471630592372186
variance: 0.12751390717799613
---
header:
  frame_id: tomsa_1
  seq: 287
  stamp:
    nsecs: 750000000
    secs: 71
temperature: 35.07508033014734
variance: 0.12682275398192394
---
header:
  frame_id: tomsa_1
  seq: 288
  stamp:
    nsecs: 0
    secs: 72
temperature: 34.95158840598401
variance: 0.09619687241719388
---
header:
  frame_id: tomsa_1
  seq: 289
  stamp:
    nsecs: 250000000
    secs: 72
temperature: 35.23299043291389
variance: 0.06816848922749558
---
header:
  frame_id: tomsa_1
  seq: 290
  stamp:
    nsecs: 500000000
    secs: 72
temperature: 35.141685831983445
variance: 0.030471658710212717
---
header:
  frame_id: tomsa_1
  seq: 291
  stamp:
    nsecs: 750000000
    secs: 72
temperature: 35.0727880422072
variance: 0.008535565155035403
---
header:
  frame_id: tomsa_1
  seq: 292
  stamp:
    nsecs: 0
    secs: 73
temperature: 35.1496928956891
variance: 0.008836962545401155
---
header:
  frame_id: tomsa_1
  seq: 293
  stamp:
    nsecs: 250000000
    secs: 73
temperature: 35.35668936115495
variance: 0.009465625154441808
---
header:
  frame_id: tomsa_1
  seq: 294
  stamp:
    nsecs: 500000000
    secs: 73
temperature: 35.48695070706844
variance: 0.024073951386965206
---
header:
  frame_id: tomsa_1
  seq: 295
  stamp:
    nsecs: 750000000
    secs: 73
temperature: 34.80712687926215
variance: 0.05534840408442192
---
header:
  frame_id: tomsa_1
  seq: 296
  stamp:
    nsecs: 0
    secs: 74
temperature: 35.43587131210423
variance: 0.06164743016227024
---
header:
  frame_id: tomsa_1
  seq: 297
  stamp:
    nsecs: 250000000
    secs: 74
temperature: 34.897467341882695
variance: 0.08167046238098079
---
header:
  frame_id: tomsa_1
  seq: 298
  stamp:
    nsecs: 500000000
    secs: 74
temperature: 35.29680963040714
variance: 0.07841500863854961
---
header:
  frame_id: tomsa_1
  seq: 299
  stamp:
    nsecs: 750000000
    secs: 74
temperature: 35.45040314503794
variance: 0.07421223624329776
---
header:
  frame_id: tomsa_1
  seq: 300
  stamp:
    nsecs: 0
    secs: 75
temperature: 34.897529312770125
variance: 0.06212551010931665
---
header:
  frame_id: tomsa_1
  seq: 301
  stamp:
    nsecs: 250000000
    secs: 75
temperature: 35.4990418722338
variance: 0.06883481456111577
---
header:
  frame_id: tomsa_1
  seq: 302
  stamp:
    nsecs: 500000000
    secs: 75
temperature: 34.924900099073014
variance: 0.0655449706100844
---
header:
  frame_id: tomsa_1
  seq: 303
  stamp:
    nsecs: 750000000
    secs: 75
temperature: 34.62351069969007
variance: 0.11570486667902583
---
header:
  frame_id: tomsa_1
  seq: 304
  stamp:
    nsecs: 0
    secs: 76
temperature: 35.08625347300295
variance: 0.08283435024084584
---
header:
  frame_id: tomsa_1
  seq: 305
  stamp:
    nsecs: 250000000
    secs: 76
temperature: 34.55824448103509
variance: 0.11600713905349505
---
header:
  frame_id: tomsa_1
  seq: 306
  stamp:
    nsecs: 500000000
    secs: 76
temperature: 35.22481346682152
variance: 0.06654068013364126
---
header:
  frame_id: tomsa_1
  seq: 307
  stamp:
    nsecs: 750000000
    secs: 76
temperature: 34.916483350641
variance: 0.06641278274005777
---
header:
  frame_id: tomsa_1
  seq: 308
  stamp:
    nsecs: 0
    secs: 77
temperature: 35.28291539830471
variance: 0.06784012616729443
---
header:
  frame_id: tomsa_1
  seq: 309
  stamp:
    nsecs: 250000000
    secs: 77
temperature: 35.47958809949991
variance: 0.10400257062845486
---
header:
  frame_id: tomsa_1
  seq: 310
  stamp:
    nsecs: 500000000
    secs: 77
temperature: 34.94346223716322
variance: 0.04543754908814753
---
header:
  frame_id: tomsa_1
  seq: 311
  stamp:
    nsecs: 750000000
    secs: 77
temperature: 35.4696270694594
variance: 0.06044818716037729
---
header:
  frame_id: tomsa_1
  seq: 312
  stamp:
    nsecs: 0
    secs: 78
temperature: 34.74860977898935
variance: 0.08523178619129293
---
header:
  frame_id: tomsa_1
  seq: 313
  stamp:
    nsecs: 250000000
    secs: 78
temperature: 35.05932289702884
variance: 0.08445924001395597
---
header:
  frame_id: tomsa_1
  seq: 314
  stamp:
    nsecs: 500000000
    secs: 78
temperature: 35.42655696597448
variance: 0.07770829972214134
---
header:
  frame_id: tomsa_1
  seq: 315
  stamp:
    nsecs: 750000000
    secs: 78
temperature: 34.65117051279057
variance: 0.11313057754536779
---
header:
  frame_id: tomsa_1
  seq: 316
  stamp:
    nsecs: 0
    secs: 79
temperature: 34.65756343678142
variance: 0.08917659361363126
---
header:
  frame_id: tomsa_1
  seq: 317
  stamp:
    nsecs: 250000000
    secs: 79
temperature: 34.97598009359395
variance: 0.08289327740708179
---
header:
  frame_id: tomsa_1
  seq: 318
  stamp:
    nsecs: 500000000
    secs: 79
temperature: 34.606952726597356
variance: 0.09659899926556627
---
header:
  frame_id: tomsa_1
  seq: 319
  stamp:
    nsecs: 750000000
    secs: 79
temperature: 34.680606803287404
variance: 0.017667878014632078
---
header:
  frame_id: tomsa_1
  seq: 320
  stamp:
    nsecs: 0
    secs: 80
temperature: 34.667957802449976
variance: 0.01728802001896574
---
header:
  frame_id: tomsa_1
  seq: 321
  stamp:
    nsecs: 250000000
    secs: 80
temperature: 35.42227625901171
variance: 0.09242453979259388
---
header:
  frame_id: tomsa_1
  seq: 322
  stamp:
    nsecs: 500000000
    secs: 80
temperature: 34.71502112673575
variance: 0.09233667283512445
---
header:
  frame_id: tomsa_1
  seq: 323
  stamp:
    nsecs: 750000000
    secs: 80
temperature: 35.1892029520128
variance: 0.09729508621070919
---
header:
  frame_id: tomsa_1
  seq: 324
  stamp:
    nsecs: 0
    secs: 81
temperature: 34.91478301581285
variance: 0.08223889519560819
---
header:
  frame_id: tomsa_1
  seq: 325
  stamp:
    nsecs: 250000000
    secs: 81
temperature: 34.9668928706407
variance: 0.0590037005050054
---
header:
  frame_id: tomsa_1
  seq: 326
  stamp:
    nsecs: 500000000
    secs: 81
temperature: 35.19261495878737
variance: 0.03247538646322181
---
header:
  frame_id: tomsa_1
  seq: 327
  stamp:
    nsecs: 750000000
    secs: 81
temperature: 34.95464126422574
variance: 0.014759425941818463
---
header:
  frame_id: tomsa_1
  seq: 328
  stamp:
    nsecs: 0
    secs: 82
temperature: 35.25255678514787
variance: 0.019090736766805685
---
header:
  frame_id: tomsa_1
  seq: 329
  stamp:
    nsecs: 250000000
    secs: 82
temperature: 35.42676364220247
variance: 0.03204947583034877
---
header:
  frame_id: tomsa_1
  seq: 330
  stamp:
    nsecs: 500000000
    secs: 82
temperature: 35.245628180235336
variance: 0.023095727292738056
---
header:
  frame_id: tomsa_1
  seq: 331
  stamp:
    nsecs: 750000000
    secs: 82
temperature: 35.49707990634062
variance: 0.035269450307814094
---
header:
  frame_id: tomsa_1
  seq: 332
  stamp:
    nsecs: 0
    secs: 83
temperature: 35.382376389688694
variance: 0.009674012879372858
---
header:
  frame_id: tomsa_1
  seq: 333
  stamp:
    nsecs: 250000000
    secs: 83
temperature: 34.92463831026011
variance: 0.04108749906958323
---
header:
  frame_id: tomsa_1
  seq: 334
  stamp:
    nsecs: 500000000
    secs: 83
temperature: 35.42372332866542
variance: 0.040929098453326665
---
header:
  frame_id: tomsa_1
  seq: 335
  stamp:
    nsecs: 750000000
    secs: 83
temperature: 35.27901514065255
variance: 0.04045224907583841
---
header:
  frame_id: tomsa_1
  seq: 336
  stamp:
    nsecs: 0
    secs: 84
temperature: 35.097476824007074
variance: 0.034718415051588486
---
header:
  frame_id: tomsa_1
  seq: 337
  stamp:
    nsecs: 250000000
    secs: 84
temperature: 35.1533927872463
variance: 0.028367605209023296
---
header:
  frame_id: tomsa_1
  seq: 338
  stamp:
    nsecs: 500000000
    secs: 84
temperature: 35.210620445658186
variance: 0.01273946924765916
---
header:
  frame_id: tomsa_1
  seq: 339
  stamp:
    nsecs: 750000000
    secs: 84
temperature: 34.76750772404564
variance: 0.03153574638284996
---
header:
  frame_id: tomsa_1
  seq: 340
  stamp:
    nsecs: 0
    secs: 85
temperature: 35.06302262906396
variance: 0.02367227534114636
---
header:
  frame_id: tomsa_1
  seq: 341
  stamp:
    nsecs: 250000000
    secs: 85
temperature: 35.3066941462453
variance: 0.033945655190807535
---
header:
  frame_id: tomsa_1
  seq: 342
  stamp:
    nsecs: 500000000
    secs: 85
temperature: 34.5622716848487
variance: 0.0772874110925337
---
header:
  frame_id: tomsa_1
  seq: 343
  stamp:
    nsecs: 750000000
    secs: 85
temperature: 35.435600422360224
variance: 0.10595787934365786
---
header:
  frame_id: tomsa_1
  seq: 344
  stamp:
    nsecs: 0
    secs: 86
temperature: 34.91752146698714
variance: 0.09398641661796174
---
header:
  frame_id: tomsa_1
  seq: 345
  stamp:
    nsecs: 250000000
    secs: 86
temperature: 34.57888771491207
variance: 0.1303262429560223
---
header:
  frame_id: tomsa_1
  seq: 346
  stamp:
    nsecs: 500000000
    secs: 86
temperature: 34.59764554749108
variance: 0.11249236046830861
---
header:
  frame_id: tomsa_1
  seq: 347
  stamp:
    nsecs: 750000000
    secs: 86
temperature: 35.14732299800316
variance: 0.10732210821348391
---
header:
  frame_id: tomsa_1
  seq: 348
  stamp:
    nsecs: 0
    secs: 87
temperature: 34.6609352547265
variance: 0.04834259597944574
---
header:
  frame_id: tomsa_1
  seq: 349
  stamp:
    nsecs: 250000000
    secs: 87
temperature: 34.52287736399078
variance: 0.05162584085177868
---
header:
  frame_id: tomsa_1
  seq: 350
  stamp:
    nsecs: 500000000
    secs: 87
temperature: 34.62026392626592
variance: 0.0498699076551229
---
header:
  frame_id: tomsa_1
  seq: 351
  stamp:
    nsecs: 750000000
    secs: 87
temperature: 35.40796507507455
variance: 0.11857344533550356
---
header:
  frame_id: tomsa_1
  seq: 352
  stamp:
    nsecs: 0
    secs: 88
temperature: 34.658687847148684
variance: 0.10293789957843087
---
header:
  frame_id: tomsa_1
  seq: 353
  stamp:
    nsecs: 250000000
    secs: 88
temperature: 34.89635786344225
variance: 0.10114477076931103
---
header:
  frame_id: tomsa_1
  seq: 354
  stamp:
    nsecs: 500000000
    secs: 88
temperature: 34.898888070511646
variance: 0.07889264236744922
---
header:
  frame_id: tomsa_1
  seq: 355
  stamp:
    nsecs: 750000000
    secs: 88
temperature: 34.89798176612781
variance: 0.060554211970632946
---
header:
  frame_id: tomsa_1
  seq: 356
  stamp:
    nsecs: 0
    secs: 89
temperature: 34.513448837741265
variance: 0.025423891639737982
---
header:
  frame_id: tomsa_1
  seq: 357
  stamp:
    nsecs: 250000000
    secs: 89
temperature: 35.31971674605577
variance: 0.06509264033805903
---
header:
  frame_id: tomsa_1
  seq: 358
  stamp:
    nsecs: 500000000
    secs: 89
temperature: 35.40570314141597
variance: 0.10478435270504038
---
header:
  frame_id: tomsa_1
  seq: 359
  stamp:
    nsecs: 750000000
    secs: 89
temperature: 34.637537475475554
variance: 0.12703050279643696
---
header:
  frame_id: tomsa_1
  seq: 360
  stamp:
    nsecs: 0
    secs: 90
temperature: 35.454498509463825
variance: 0.16391885230157344
---
header:
  frame_id: tomsa_1
  seq: 361
  stamp:
    nsecs: 250000000
    secs: 90
temperature: 34.90290932249445
variance: 0.10208064206099332
---
header:
  frame_id: tomsa_1
  seq: 362
  stamp:
    nsecs: 500000000
    secs: 90
temperature: 35.1202655876611
variance: 0.09443262805827993
---
header:
  frame_id: tomsa_1
  seq: 363
  stamp:
    nsecs: 750000000
    secs: 90
temperature: 34.74039223222138
variance: 0.08501289794925222
---
header:
  frame_id: tomsa_1
  seq: 364
  stamp:
    nsecs: 0
    secs: 91
temperature: 35.33871451560707
variance: 0.07011643830801575
---
header:
  frame_id: tomsa_1
  seq: 365
  stamp:
    nsecs: 250000000
    secs: 91
temperature: 35.2614279260441
variance: 0.0495803511241654
---
header:
  frame_id: tomsa_1
  seq: 366
  stamp:
    nsecs: 500000000
    secs: 91
temperature: 34.76645421899641
variance: 0.061829360061100055
---
header:
  frame_id: tomsa_1
  seq: 367
  stamp:
    nsecs: 750000000
    secs: 91
temperature: 35.11711183717748
variance: 0.06173657269596866
---
header:
  frame_id: tomsa_1
  seq: 368
  stamp:
    nsecs: 0
    secs: 92
temperature: 34.91199755110772
variance: 0.04555173468179132
---
header:
  frame_id: tomsa_1
  seq: 369
  stamp:
    nsecs: 250000000
    secs: 92
temperature: 34.77974627189821
variance: 0.03750572033050734
---
header:
  frame_id: tomsa_1
  seq: 370
  stamp:
    nsecs: 500000000
    secs: 92
temperature: 35.24200371756338
variance: 0.0352811769825904
---
header:
  frame_id: tomsa_1
  seq: 371
  stamp:
    nsecs: 750000000
    secs: 92
temperature: 35.01714212750357
variance: 0.02558122581348828
---
header:
  frame_id: tomsa_1
  seq: 372
  stamp:
    nsecs: 0
    secs: 93
temperature: 34.664787172308685
variance: 0.039588513849721244
---
header:
  frame_id: tomsa_1
  seq: 373
  stamp:
    nsecs: 250000000
    secs: 93
temperature: 34.96515682912345
variance: 0.03980382794049713
---
header:
  frame_id: tomsa_1
  seq: 374
  stamp:
    nsecs: 500000000
    secs: 93
temperature: 34.8960343334124
variance: 0.034803174894528915
---
header:
  frame_id: tomsa_1
  seq: 375
  stamp:
    nsecs: 750000000
    secs: 93
temperature: 35.38502800227116
variance: 0.05437968653510015
---
header:
  frame_id: tomsa_1
  seq: 376
  stamp:
    nsecs: 0
    secs: 94
temperature: 35.31701292225625
variance: 0.07254714902320092
---
header:
  frame_id: tomsa_1
  seq: 377
  stamp:
    nsecs: 250000000
    secs: 94
temperature: 34.699867296775736
variance: 0.06740040883710316
---
header:
  frame_id: tomsa_1
  seq: 378
  stamp:
    nsecs: 500000000
    secs: 94
temperature: 35.23693124494336
variance: 0.06971013466043476
---
header:
  frame_id: tomsa_1
  seq: 379
  stamp:
    nsecs: 750000000
    secs: 94
temperature: 35.113001405657045
variance: 0.05893523762660234
---
header:
  frame_id: tomsa_1
  seq: 380
  stamp:
    nsecs: 0
    secs: 95
temperature: 34.96618825035333
variance: 0.0476895700329693
---
header:
  frame_id: tomsa_1
  seq: 381
  stamp:
    nsecs: 250000000
    secs: 95
temperature: 35.006571325991665
variance: 0.03201400047458673
---
header:
  frame_id: tomsa_1
  seq: 382
  stamp:
    nsecs: 500000000
    secs: 95
temperature: 35.44803326347679
variance: 0.030404479622938158
---
header:
  frame_id: tomsa_1
  seq: 383
  stamp:
    nsecs: 750000000
    secs: 95
temperature: 34.815915001705484
variance: 0.044823502937086805
---
header:
  frame_id: tomsa_1
  seq: 384
  stamp:
    nsecs: 0
    secs: 96
temperature: 34.507163908872386
variance: 0.09311491703749782
---
header:
  frame_id: tomsa_1
  seq: 385
  stamp:
    nsecs: 250000000
    secs: 96
temperature: 34.64211533168078
variance: 0.10766128870137995
---
header:
  frame_id: tomsa_1
  seq: 386
  stamp:
    nsecs: 500000000
    secs: 96
temperature: 35.20748168329989
variance: 0.12397325707263315
---
header:
  frame_id: tomsa_1
  seq: 387
  stamp:
    nsecs: 750000000
    secs: 96
temperature: 35.26021517617563
variance: 0.09025884429032166
---
header:
  frame_id: tomsa_1
  seq: 388
  stamp:
    nsecs: 0
    secs: 97
temperature: 34.620450867955626
variance: 0.10189669063141811
---
header:
  frame_id: tomsa_1
  seq: 389
  stamp:
    nsecs: 250000000
    secs: 97
temperature: 34.85238635842509
variance: 0.07397061034264649
---
