header:
  frame_id: tomsa_1
  seq: 0
  stamp:
    nsecs: 0
    secs: 0
temperature: 25.413110388089557
variance: 0.008054593531106661
---
header:
  frame_id: tomsa_1
  seq: 1
  stamp:
    nsecs: 250000000
    secs: 2
temperature: 25.574415035405657
variance: 0.006476519418999646
---
header:
  frame_id: tomsa_1
  seq: 2
  stamp:
    nsecs: 500000000
    secs: 4
temperature: 25.580423289926305
variance: 0.006476519418999646
---
header:
  frame_id: tomsa_1
  seq: 3
  stamp:
    nsecs: 750000000
    secs: 6
temperature: 25.38646137672087
variance: 0.006476519418999646
---
header:
  frame_id: tomsa_1
  seq: 4
  stamp:
    nsecs: 0
    secs: 8
temperature: 25.46473098157829
variance: 0.006476519418999646
---
header:
  frame_id: tomsa_1
  seq: 5
  stamp:
    nsecs: 250000000
    secs: 10
temperature: 25.607604360394586
variance: 0.007027307884665981
---
header:
  frame_id: tomsa_1
  seq: 6
  stamp:
    nsecs: 500000000
    secs: 12
temperature: 25.78683244634629
variance: 0.018638467634826166
---
header:
  frame_id: tomsa_1
  seq: 7
  stamp:
    nsecs: 750000000
    secs: 14
temperature: 25.41165058550588
variance: 0.02216894166891455
---
header:
  frame_id: tomsa_1
  seq: 8
  stamp:
    nsecs: 0
    secs: 16
temperature: 25.968730956008113
variance: 0.042644628044751075
---
header:
  frame_id: tomsa_1
  seq: 9
  stamp:
    nsecs: 250000000
    secs: 18
temperature: 25.811040503935228
variance: 0.036458836905404184
---
header:
  frame_id: tomsa_1
  seq: 10
  stamp:
    nsecs: 500000000
    secs: 20
temperature: 25.70919516249542
variance: 0.03365773104867339
---
header:
  frame_id: tomsa_1
  seq: 11
  stamp:
    nsecs: 750000000
    secs: 22
temperature: 25.46815357404157
variance: 0.043616959956247876
---
header:
  frame_id: tomsa_1
  seq: 12
  stamp:
    nsecs: 0
    secs: 24
temperature: 26.087522170567457
variance: 0.04584600151177383
---
header:
  frame_id: tomsa_1
  seq: 13
  stamp:
    nsecs: 250000000
    secs: 26
temperature: 25.88161897597786
variance: 0.0414918767729764
---
header:
  frame_id: tomsa_1
  seq: 14
  stamp:
    nsecs: 500000000
    secs: 28
temperature: 26.107126581105607
variance: 0.057832139876659513
---
header:
  frame_id: tomsa_1
  seq: 15
  stamp:
    nsecs: 750000000
    secs: 30
temperature: 26.473393367048182
variance: 0.10800974597084975
---
header:
  frame_id: tomsa_1
  seq: 16
  stamp:
    nsecs: 0
    secs: 32
temperature: 26.695653604827005
variance: 0.08620475585432079
---
header:
  frame_id: tomsa_1
  seq: 17
  stamp:
    nsecs: 250000000
    secs: 34
temperature: 26.433957239735108
variance: 0.08302216195862226
---
header:
  frame_id: tomsa_1
  seq: 18
  stamp:
    nsecs: 500000000
    secs: 36
temperature: 25.98489772863979
variance: 0.06668678982605913
---
header:
  frame_id: tomsa_1
  seq: 19
  stamp:
    nsecs: 750000000
    secs: 38
temperature: 26.288757230892426
variance: 0.05511859837175499
---
header:
  frame_id: tomsa_1
  seq: 20
  stamp:
    nsecs: 0
    secs: 40
temperature: 26.444469637174745
variance: 0.054117929401220996
---
header:
  frame_id: tomsa_1
  seq: 21
  stamp:
    nsecs: 250000000
    secs: 42
temperature: 26.472725280573474
variance: 0.03299010373481202
---
header:
  frame_id: tomsa_1
  seq: 22
  stamp:
    nsecs: 500000000
    secs: 44
temperature: 26.155210705240517
variance: 0.033269162182869585
---
header:
  frame_id: tomsa_1
  seq: 23
  stamp:
    nsecs: 750000000
    secs: 46
temperature: 26.2438413008311
variance: 0.014548892667943633
---
header:
  frame_id: tomsa_1
  seq: 24
  stamp:
    nsecs: 0
    secs: 48
temperature: 27.049067043431062
variance: 0.09723420423090687
---
header:
  frame_id: tomsa_1
  seq: 25
  stamp:
    nsecs: 250000000
    secs: 50
temperature: 27.1399799771061
variance: 0.16667701116680056
---
header:
  frame_id: tomsa_1
  seq: 26
  stamp:
    nsecs: 500000000
    secs: 52
temperature: 26.73791267811841
variance: 0.16313786027194171
---
header:
  frame_id: tomsa_1
  seq: 27
  stamp:
    nsecs: 750000000
    secs: 54
temperature: 26.72791087870069
variance: 0.09878661916837342
---
header:
  frame_id: tomsa_1
  seq: 28
  stamp:
    nsecs: 0
    secs: 56
temperature: 91.98469873354505
variance: 677.504201914562
---
header:
  frame_id: tomsa_1
  seq: 29
  stamp:
    nsecs: 250000000
    secs: 58
temperature: 91.91062818504177
variance: 1016.4908959637709
---
header:
  frame_id: tomsa_1
  seq: 30
  stamp:
    nsecs: 500000000
    secs: 60
temperature: 92.00130224114169
variance: 1021.2720261932764
---
header:
  frame_id: tomsa_1
  seq: 31
  stamp:
    nsecs: 750000000
    secs: 62
temperature: 92.30349801225066
variance: 682.7347812122844
---
header:
  frame_id: tomsa_1
  seq: 32
  stamp:
    nsecs: 0
    secs: 64
temperature: 92.0614648462119
variance: 0.01808520797194841
---
header:
  frame_id: tomsa_1
  seq: 33
  stamp:
    nsecs: 250000000
    secs: 66
temperature: 91.68840544503905
variance: 0.04014566378997776
---
header:
  frame_id: tomsa_1
  seq: 34
  stamp:
    nsecs: 500000000
    secs: 68
temperature: 91.96310583603713
variance: 0.03885596253315103
---
header:
  frame_id: tomsa_1
  seq: 35
  stamp:
    nsecs: 750000000
    secs: 70
temperature: 91.8100290338631
variance: 0.04488201099656869
---
header:
  frame_id: tomsa_1
  seq: 36
  stamp:
    nsecs: 0
    secs: 72
temperature: 91.61060740055092
variance: 0.02796407983366115
---
header:
  frame_id: tomsa_1
  seq: 37
  stamp:
    nsecs: 250000000
    secs: 74
temperature: 92.46045629144557
variance: 0.09089922079236692
---
header:
  frame_id: tomsa_1
  seq: 38
  stamp:
    nsecs: 500000000
    secs: 76
temperature: 92.21252814641004
variance: 0.08912427385528904
---
header:
  frame_id: tomsa_1
  seq: 39
  stamp:
    nsecs: 750000000
    secs: 78
temperature: 92.19806483041148
variance: 0.09342346820904099
---
header:
  frame_id: tomsa_1
  seq: 40
  stamp:
    nsecs: 0
    secs: 80
temperature: 91.84824614546082
variance: 0.08986130837872279
---
header:
  frame_id: tomsa_1
  seq: 41
  stamp:
    nsecs: 250000000
    secs: 82
temperature: 92.2866497633462
variance: 0.03984601314648424
---
header:
  frame_id: tomsa_1
  seq: 42
  stamp:
    nsecs: 500000000
    secs: 84
temperature: 91.92945862583326
variance: 0.029891253399385614
---
header:
  frame_id: tomsa_1
  seq: 43
  stamp:
    nsecs: 750000000
    secs: 86
temperature: 92.13474848354785
variance: 0.027202355107077997
---
header:
  frame_id: tomsa_1
  seq: 44
  stamp:
    nsecs: 0
    secs: 88
temperature: 91.64494989214212
variance: 0.0499054477232619
---
header:
  frame_id: tomsa_1
  seq: 45
  stamp:
    nsecs: 250000000
    secs: 90
temperature: 92.46339729859693
variance: 0.08078505743404607
---
header:
  frame_id: tomsa_1
  seq: 46
  stamp:
    nsecs: 500000000
    secs: 92
temperature: 91.95355020117846
variance: 0.07258159789712151
---
header:
  frame_id: tomsa_1
  seq: 47
  stamp:
    nsecs: 750000000
    secs: 94
temperature: 92.27149727918803
variance: 0.07819830860451325
---
header:
  frame_id: tomsa_1
  seq: 48
  stamp:
    nsecs: 0
    secs: 96
temperature: 91.73611656654074
variance: 0.09706681917526158
---
header:
  frame_id: tomsa_1
  seq: 49
  stamp:
    nsecs: 250000000
    secs: 98
temperature: 91.96126026610628
variance: 0.06639379660065241
---
header:
  frame_id: tomsa_1
  seq: 50
  stamp:
    nsecs: 500000000
    secs: 100
temperature: 92.22661728250708
variance: 0.038783260629058555
---
header:
  frame_id: tomsa_1
  seq: 51
  stamp:
    nsecs: 750000000
    secs: 102
temperature: 91.7342740008891
variance: 0.05316502508717513
---
header:
  frame_id: tomsa_1
  seq: 52
  stamp:
    nsecs: 0
    secs: 104
temperature: 91.67554359870714
variance: 0.04192230456598383
---
header:
  frame_id: tomsa_1
  seq: 53
  stamp:
    nsecs: 250000000
    secs: 106
temperature: 91.61057225342886
variance: 0.0510048581988527
---
header:
  frame_id: tomsa_1
  seq: 54
  stamp:
    nsecs: 500000000
    secs: 108
temperature: 92.0655998856671
variance: 0.057738629802480214
---
header:
  frame_id: tomsa_1
  seq: 55
  stamp:
    nsecs: 750000000
    secs: 110
temperature: 92.02118256950249
variance: 0.03457200430845199
---
header:
  frame_id: tomsa_1
  seq: 56
  stamp:
    nsecs: 0
    secs: 112
temperature: 92.03461741843942
variance: 0.038533763000234825
---
header:
  frame_id: tomsa_1
  seq: 57
  stamp:
    nsecs: 250000000
    secs: 114
temperature: 92.34241451615927
variance: 0.054749081609702044
---
header:
  frame_id: tomsa_1
  seq: 58
  stamp:
    nsecs: 500000000
    secs: 116
temperature: 91.53512149371798
variance: 0.06786198238409384
---
header:
  frame_id: tomsa_1
  seq: 59
  stamp:
    nsecs: 750000000
    secs: 118
temperature: 92.41275600541964
variance: 0.09628367569170634
---
header:
  frame_id: tomsa_1
  seq: 60
  stamp:
    nsecs: 0
    secs: 120
temperature: 92.48363349757369
variance: 0.12161572755401218
---
header:
  frame_id: tomsa_1
  seq: 61
  stamp:
    nsecs: 250000000
    secs: 122
temperature: 92.15146541711492
variance: 0.11786014087736736
---
header:
  frame_id: tomsa_1
  seq: 62
  stamp:
    nsecs: 500000000
    secs: 124
temperature: 91.61660690052763
variance: 0.15646924940389487
---
header:
  frame_id: tomsa_1
  seq: 63
  stamp:
    nsecs: 750000000
    secs: 126
temperature: 91.96263892265387
variance: 0.09938914058874412
---
header:
  frame_id: tomsa_1
  seq: 64
  stamp:
    nsecs: 0
    secs: 128
temperature: 91.53943430259916
variance: 0.12104501216410565
---
header:
  frame_id: tomsa_1
  seq: 65
  stamp:
    nsecs: 250000000
    secs: 130
temperature: 91.73818983400523
variance: 0.05106269422090589
---
header:
  frame_id: tomsa_1
  seq: 66
  stamp:
    nsecs: 500000000
    secs: 132
temperature: 92.23590609979466
variance: 0.064018415154063
---
header:
  frame_id: tomsa_1
  seq: 67
  stamp:
    nsecs: 750000000
    secs: 134
temperature: 92.39864145545978
variance: 0.09869867924493587
---
header:
  frame_id: tomsa_1
  seq: 68
  stamp:
    nsecs: 0
    secs: 136
temperature: 91.6542669810226
variance: 0.11543365162172334
---
header:
  frame_id: tomsa_1
  seq: 69
  stamp:
    nsecs: 250000000
    secs: 138
temperature: 91.92195979839511
variance: 0.0816423846423266
---
header:
  frame_id: tomsa_1
  seq: 70
  stamp:
    nsecs: 500000000
    secs: 140
temperature: 92.07244117313698
variance: 0.06587876204038501
---
header:
  frame_id: tomsa_1
  seq: 71
  stamp:
    nsecs: 750000000
    secs: 142
temperature: 91.93588145222265
variance: 0.05876780115749529
---
header:
  frame_id: tomsa_1
  seq: 72
  stamp:
    nsecs: 0
    secs: 144
temperature: 91.97437644023351
variance: 0.01934555799750498
---
header:
  frame_id: tomsa_1
  seq: 73
  stamp:
    nsecs: 250000000
    secs: 146
temperature: 91.83058485753592
variance: 0.0061576129427652945
---
header:
  frame_id: tomsa_1
  seq: 74
  stamp:
    nsecs: 500000000
    secs: 148
temperature: 92.26015042009163
variance: 0.021063337913354182
---
header:
  frame_id: tomsa_1
  seq: 75
  stamp:
    nsecs: 750000000
    secs: 150
temperature: 92.17977525890548
variance: 0.025386237056969557
---
header:
  frame_id: tomsa_1
  seq: 76
  stamp:
    nsecs: 0
    secs: 152
temperature: 92.28836112933527
variance: 0.031127374895778458
---
header:
  frame_id: tomsa_1
  seq: 77
  stamp:
    nsecs: 250000000
    secs: 154
temperature: 91.78539785952012
variance: 0.04684015873446694
---
header:
  frame_id: tomsa_1
  seq: 78
  stamp:
    nsecs: 500000000
    secs: 156
temperature: 92.0999469777787
variance: 0.03277684869230619
---
header:
  frame_id: tomsa_1
  seq: 79
  stamp:
    nsecs: 750000000
    secs: 158
temperature: 91.99884198303502
variance: 0.02933795480698425
---
header:
  frame_id: tomsa_1
  seq: 80
  stamp:
    nsecs: 0
    secs: 160
temperature: 91.55555608551457
variance: 0.06438837379338051
---
header:
  frame_id: tomsa_1
  seq: 81
  stamp:
    nsecs: 250000000
    secs: 162
temperature: 92.15813069037429
variance: 0.04924787950146931
---
header:
  frame_id: tomsa_1
  seq: 82
  stamp:
    nsecs: 500000000
    secs: 164
temperature: 91.52992395282563
variance: 0.07340206083846729
---
header:
  frame_id: tomsa_1
  seq: 83
  stamp:
    nsecs: 750000000
    secs: 166
temperature: 92.31869985230591
variance: 0.1013121441889087
---
header:
  frame_id: tomsa_1
  seq: 84
  stamp:
    nsecs: 0
    secs: 168
temperature: 92.2250151885724
variance: 0.11733251275613846
---
header:
  frame_id: tomsa_1
  seq: 85
  stamp:
    nsecs: 250000000
    secs: 170
temperature: 92.42276347627212
variance: 0.09824489231669253
---
header:
  frame_id: tomsa_1
  seq: 86
  stamp:
    nsecs: 500000000
    secs: 172
temperature: 91.92381076067964
variance: 0.10447816925789007
---
header:
  frame_id: tomsa_1
  seq: 87
  stamp:
    nsecs: 750000000
    secs: 174
temperature: 91.87130642218017
variance: 0.04745832458464738
---
header:
  frame_id: tomsa_1
  seq: 88
  stamp:
    nsecs: 0
    secs: 176
temperature: 92.34076218510937
variance: 0.04900450268801392
---
header:
  frame_id: tomsa_1
  seq: 89
  stamp:
    nsecs: 250000000
    secs: 178
temperature: 92.33532946963406
variance: 0.05396464288808234
---
header:
  frame_id: tomsa_1
  seq: 90
  stamp:
    nsecs: 500000000
    secs: 180
temperature: 91.95081611971895
variance: 0.04354591966495944
---
header:
  frame_id: tomsa_1
  seq: 91
  stamp:
    nsecs: 750000000
    secs: 182
temperature: 92.23052526468186
variance: 0.038895093643101106
---
header:
  frame_id: tomsa_1
  seq: 92
  stamp:
    nsecs: 0
    secs: 184
temperature: 91.74694588867331
variance: 0.055021455464615496
---
header:
  frame_id: tomsa_1
  seq: 93
  stamp:
    nsecs: 250000000
    secs: 186
temperature: 91.52690449911444
variance: 0.08941725422663953
---
header:
  frame_id: tomsa_1
  seq: 94
  stamp:
    nsecs: 500000000
    secs: 188
temperature: 91.94578964944816
variance: 0.054918159723144754
---
header:
  frame_id: tomsa_1
  seq: 95
  stamp:
    nsecs: 750000000
    secs: 190
temperature: 91.8621561550614
variance: 0.053671393172460446
---
header:
  frame_id: tomsa_1
  seq: 96
  stamp:
    nsecs: 0
    secs: 192
temperature: 92.46752076585322
variance: 0.09754960991475178
---
header:
  frame_id: tomsa_1
  seq: 97
  stamp:
    nsecs: 250000000
    secs: 194
temperature: 92.19475297352538
variance: 0.10045235472556094
---
header:
  frame_id: tomsa_1
  seq: 98
  stamp:
    nsecs: 500000000
    secs: 196
temperature: 92.36691480072938
variance: 0.05458235274040065
---
header:
  frame_id: tomsa_1
  seq: 99
  stamp:
    nsecs: 750000000
    secs: 198
temperature: 91.87354343381422
variance: 0.06182245538843782
---
header:
  frame_id: tomsa_1
  seq: 100
  stamp:
    nsecs: 0
    secs: 200
temperature: 91.93909181866817
variance: 0.053819693665128066
---
header:
  frame_id: tomsa_1
  seq: 101
  stamp:
    nsecs: 250000000
    secs: 202
temperature: 91.61956737764767
variance: 0.06739554542745893
---
header:
  frame_id: tomsa_1
  seq: 102
  stamp:
    nsecs: 500000000
    secs: 204
temperature: 91.73613905311494
variance: 0.06509636259646136
---
header:
  frame_id: tomsa_1
  seq: 103
  stamp:
    nsecs: 750000000
    secs: 206
temperature: 91.84214446127972
variance: 0.012628697238952175
---
header:
  frame_id: tomsa_1
  seq: 104
  stamp:
    nsecs: 0
    secs: 208
temperature: 92.48258415695479
variance: 0.08938305295136342
---
header:
  frame_id: tomsa_1
  seq: 105
  stamp:
    nsecs: 250000000
    secs: 210
temperature: 91.69026503181222
variance: 0.0977778983897988
---
header:
  frame_id: tomsa_1
  seq: 106
  stamp:
    nsecs: 500000000
    secs: 212
temperature: 92.19300302210809
variance: 0.09199803851248553
---
header:
  frame_id: tomsa_1
  seq: 107
  stamp:
    nsecs: 750000000
    secs: 214
temperature: 91.52429787619629
variance: 0.12059020510648585
---
header:
  frame_id: tomsa_1
  seq: 108
  stamp:
    nsecs: 0
    secs: 216
temperature: 91.69336143513381
variance: 0.1303401150464592
---
header:
  frame_id: tomsa_1
  seq: 109
  stamp:
    nsecs: 250000000
    secs: 218
temperature: 92.18036197752102
variance: 0.07654541565764114
---
header:
  frame_id: tomsa_1
  seq: 110
  stamp:
    nsecs: 500000000
    secs: 220
temperature: 92.21339892216079
variance: 0.08559787503268954
---
header:
  frame_id: tomsa_1
  seq: 111
  stamp:
    nsecs: 750000000
    secs: 222
temperature: 92.32907772733687
variance: 0.10119466290605758
---
header:
  frame_id: tomsa_1
  seq: 112
  stamp:
    nsecs: 0
    secs: 224
temperature: 92.33398273496039
variance: 0.055875704888375
---
header:
  frame_id: tomsa_1
  seq: 113
  stamp:
    nsecs: 250000000
    secs: 226
temperature: 91.85467402989205
variance: 0.030572205700571408
---
header:
  frame_id: tomsa_1
  seq: 114
  stamp:
    nsecs: 500000000
    secs: 228
temperature: 92.30269589860858
variance: 0.03287191056319065
---
header:
  frame_id: tomsa_1
  seq: 115
  stamp:
    nsecs: 750000000
    secs: 230
temperature: 92.28702989885662
variance: 0.03393471334168012
---
header:
  frame_id: tomsa_1
  seq: 116
  stamp:
    nsecs: 0
    secs: 232
temperature: 92.09224414883788
variance: 0.03271717673417227
---
header:
  frame_id: tomsa_1
  seq: 117
  stamp:
    nsecs: 250000000
    secs: 234
temperature: 91.88292726699444
variance: 0.03642752192915923
---
header:
  frame_id: tomsa_1
  seq: 118
  stamp:
    nsecs: 500000000
    secs: 236
temperature: 92.18007174959584
variance: 0.023531212309586973
---
header:
  frame_id: tomsa_1
  seq: 119
  stamp:
    nsecs: 750000000
    secs: 238
temperature: 92.03562933141619
variance: 0.01852366298843625
---
header:
  frame_id: tomsa_1
  seq: 120
  stamp:
    nsecs: 0
    secs: 240
temperature: 92.23751384382915
variance: 0.015124029340651504
---
header:
  frame_id: tomsa_1
  seq: 121
  stamp:
    nsecs: 250000000
    secs: 242
temperature: 91.76413458884583
variance: 0.03148710814274303
---
header:
  frame_id: tomsa_1
  seq: 122
  stamp:
    nsecs: 500000000
    secs: 244
temperature: 92.36307348815315
variance: 0.04203695760715156
---
header:
  frame_id: tomsa_1
  seq: 123
  stamp:
    nsecs: 750000000
    secs: 246
temperature: 91.74229090159932
variance: 0.06149634956682824
---
header:
  frame_id: tomsa_1
  seq: 124
  stamp:
    nsecs: 0
    secs: 248
temperature: 92.47838069532128
variance: 0.09411852618384602
---
header:
  frame_id: tomsa_1
  seq: 125
  stamp:
    nsecs: 250000000
    secs: 250
temperature: 120.21477868882847
variance: 126.67827256583807
---
header:
  frame_id: tomsa_1
  seq: 126
  stamp:
    nsecs: 500000000
    secs: 252
temperature: 119.71390829613433
variance: 185.1661076477736
---
header:
  frame_id: tomsa_1
  seq: 127
  stamp:
    nsecs: 750000000
    secs: 254
temperature: 120.47829123046705
variance: 188.61499208601998
---
header:
  frame_id: tomsa_1
  seq: 128
  stamp:
    nsecs: 0
    secs: 256
temperature: 119.90359235617672
variance: 121.9434659608128
---
header:
  frame_id: tomsa_1
  seq: 129
  stamp:
    nsecs: 250000000
    secs: 258
temperature: 119.85034066331731
variance: 0.07665094301524729
---
header:
  frame_id: tomsa_1
  seq: 130
  stamp:
    nsecs: 500000000
    secs: 260
temperature: 120.10382162763158
variance: 0.07051663229516483
---
header:
  frame_id: tomsa_1
  seq: 131
  stamp:
    nsecs: 750000000
    secs: 262
temperature: 92.06913767096894
variance: 125.62190504558416
---
header:
  frame_id: tomsa_1
  seq: 132
  stamp:
    nsecs: 0
    secs: 264
temperature: 92.09755193529465
variance: 186.41391629993737
---
header:
  frame_id: tomsa_1
  seq: 133
  stamp:
    nsecs: 250000000
    secs: 266
temperature: 91.57372998698199
variance: 189.05699548222694
---
header:
  frame_id: tomsa_1
  seq: 134
  stamp:
    nsecs: 500000000
    secs: 268
temperature: 91.57425383490094
variance: 127.96945563434164
---
header:
  frame_id: tomsa_1
  seq: 135
  stamp:
    nsecs: 750000000
    secs: 270
temperature: 92.33483989288567
variance: 0.09296237803251566
---
header:
  frame_id: tomsa_1
  seq: 136
  stamp:
    nsecs: 0
    secs: 272
temperature: 92.00567931141758
variance: 0.09007244212751912
---
header:
  frame_id: tomsa_1
  seq: 137
  stamp:
    nsecs: 250000000
    secs: 274
temperature: 92.0343981193858
variance: 0.0861548993557533
---
header:
  frame_id: tomsa_1
  seq: 138
  stamp:
    nsecs: 500000000
    secs: 276
temperature: 92.23590691331086
variance: 0.068678865873569
---
header:
  frame_id: tomsa_1
  seq: 139
  stamp:
    nsecs: 750000000
    secs: 278
temperature: 92.24841359615576
variance: 0.016607338956165552
---
header:
  frame_id: tomsa_1
  seq: 140
  stamp:
    nsecs: 0
    secs: 280
temperature: 92.09283127806651
variance: 0.01020002725843051
---
header:
  frame_id: tomsa_1
  seq: 141
  stamp:
    nsecs: 250000000
    secs: 282
temperature: 92.21561304001955
variance: 0.007362307635303366
---
header:
  frame_id: tomsa_1
  seq: 142
  stamp:
    nsecs: 500000000
    secs: 284
temperature: 92.21175678912607
variance: 0.003099243556566452
---
header:
  frame_id: tomsa_1
  seq: 143
  stamp:
    nsecs: 750000000
    secs: 286
temperature: 92.33532385693448
variance: 0.006072580350974911
---
header:
  frame_id: tomsa_1
  seq: 144
  stamp:
    nsecs: 0
    secs: 288
temperature: 92.24739324874184
variance: 0.006061471728632648
---
header:
  frame_id: tomsa_1
  seq: 145
  stamp:
    nsecs: 250000000
    secs: 290
temperature: 119.7666589654258
variance: 121.12642092201921
---
header:
  frame_id: tomsa_1
  seq: 146
  stamp:
    nsecs: 500000000
    secs: 292
temperature: 119.62661114920161
variance: 180.60459295278042
---
header:
  frame_id: tomsa_1
  seq: 147
  stamp:
    nsecs: 750000000
    secs: 294
temperature: 120.41966837556245
variance: 183.50857061714737
---
header:
  frame_id: tomsa_1
  seq: 148
  stamp:
    nsecs: 0
    secs: 296
temperature: 119.51968840473712
variance: 121.85376370588679
---
header:
  frame_id: tomsa_1
  seq: 149
  stamp:
    nsecs: 250000000
    secs: 298
temperature: 120.11254122772438
variance: 0.11035717836423284
---
header:
  frame_id: tomsa_1
  seq: 150
  stamp:
    nsecs: 500000000
    secs: 300
temperature: 120.0319143242141
variance: 0.10863062957983752
---
header:
  frame_id: tomsa_1
  seq: 151
  stamp:
    nsecs: 750000000
    secs: 302
temperature: 91.56255962302932
variance: 129.66457507199436
---
header:
  frame_id: tomsa_1
  seq: 152
  stamp:
    nsecs: 0
    secs: 304
temperature: 91.82156276363932
variance: 190.8513460516242
---
header:
  frame_id: tomsa_1
  seq: 153
  stamp:
    nsecs: 250000000
    secs: 306
temperature: 91.96496252773811
variance: 192.0842019635581
---
header:
  frame_id: tomsa_1
  seq: 154
  stamp:
    nsecs: 500000000
    secs: 308
temperature: 91.62111354065021
variance: 128.06667565509005
---
header:
  frame_id: tomsa_1
  seq: 155
  stamp:
    nsecs: 750000000
    secs: 310
temperature: 91.58541023701582
variance: 0.024521585150709613
---
header:
  frame_id: tomsa_1
  seq: 156
  stamp:
    nsecs: 0
    secs: 312
temperature: 91.87138769025026
variance: 0.021429488784585927
---
header:
  frame_id: tomsa_1
  seq: 157
  stamp:
    nsecs: 250000000
    secs: 314
temperature: 92.13411281039289
variance: 0.043144894751798835
---
header:
  frame_id: tomsa_1
  seq: 158
  stamp:
    nsecs: 500000000
    secs: 316
temperature: 91.57185224080031
variance: 0.04749724646672124
---
header:
  frame_id: tomsa_1
  seq: 159
  stamp:
    nsecs: 750000000
    secs: 318
temperature: 92.33970684366727
variance: 0.09112320629301199
---
header:
  frame_id: tomsa_1
  seq: 160
  stamp:
    nsecs: 0
    secs: 320
temperature: 92.25989471183871
variance: 0.07890426241453823
---
header:
  frame_id: tomsa_1
  seq: 161
  stamp:
    nsecs: 250000000
    secs: 322
temperature: 92.33951861341296
variance: 0.08325773022154702
---
header:
  frame_id: tomsa_1
  seq: 162
  stamp:
    nsecs: 500000000
    secs: 324
temperature: 91.71554267554791
variance: 0.11043670922028156
---
header:
  frame_id: tomsa_1
  seq: 163
  stamp:
    nsecs: 750000000
    secs: 326
temperature: 92.16990387333762
variance: 0.05440402618347362
---
header:
  frame_id: tomsa_1
  seq: 164
  stamp:
    nsecs: 0
    secs: 328
temperature: 92.07083922431345
variance: 0.04717186876054282
---
header:
  frame_id: tomsa_1
  seq: 165
  stamp:
    nsecs: 250000000
    secs: 330
temperature: 91.72908105377464
variance: 0.06066951971199491
---
header:
  frame_id: tomsa_1
  seq: 166
  stamp:
    nsecs: 500000000
    secs: 332
temperature: 91.57544315140096
variance: 0.051833341362597186
---
header:
  frame_id: tomsa_1
  seq: 167
  stamp:
    nsecs: 750000000
    secs: 334
temperature: 91.79672040556743
variance: 0.04845153466488859
---
header:
  frame_id: tomsa_1
  seq: 168
  stamp:
    nsecs: 0
    secs: 336
temperature: 91.81525523867896
variance: 0.02580411576983509
---
header:
  frame_id: tomsa_1
  seq: 169
  stamp:
    nsecs: 250000000
    secs: 338
temperature: 91.5584310920175
variance: 0.011782957457114752
---
header:
  frame_id: tomsa_1
  seq: 170
  stamp:
    nsecs: 500000000
    secs: 340
temperature: 92.2733549332052
variance: 0.06660318427283014
---
header:
  frame_id: tomsa_1
  seq: 171
  stamp:
    nsecs: 750000000
    secs: 342
temperature: 92.47387501432313
variance: 0.11367200527622219
---
header:
  frame_id: tomsa_1
  seq: 172
  stamp:
    nsecs: 0
    secs: 344
temperature: 92.21307338601464
variance: 0.11029692494075609
---
header:
  frame_id: tomsa_1
  seq: 173
  stamp:
    nsecs: 250000000
    secs: 346
temperature: 91.57338577393128
variance: 0.14399325773705982
---
header:
  frame_id: tomsa_1
  seq: 174
  stamp:
    nsecs: 500000000
    secs: 348
temperature: 92.06796170353806
variance: 0.0917804935777527
---
header:
  frame_id: tomsa_1
  seq: 175
  stamp:
    nsecs: 750000000
    secs: 350
temperature: 91.92199496726474
variance: 0.09002639435323441
---
header:
  frame_id: tomsa_1
  seq: 176
  stamp:
    nsecs: 0
    secs: 352
temperature: 92.01703451564417
variance: 0.04597223336679431
---
header:
  frame_id: tomsa_1
  seq: 177
  stamp:
    nsecs: 250000000
    secs: 354
temperature: 91.99973241404835
variance: 0.031546379000125496
---
header:
  frame_id: tomsa_1
  seq: 178
  stamp:
    nsecs: 500000000
    secs: 356
temperature: 92.44752441042868
variance: 0.03400073428983124
---
header:
  frame_id: tomsa_1
  seq: 179
  stamp:
    nsecs: 750000000
    secs: 358
temperature: 91.90488133174279
variance: 0.03974899432458205
---
header:
  frame_id: tomsa_1
  seq: 180
  stamp:
    nsecs: 0
    secs: 360
temperature: 92.03135696617261
variance: 0.035702873288888895
---
header:
  frame_id: tomsa_1
  seq: 181
  stamp:
    nsecs: 250000000
    secs: 362
temperature: 92.11836711955313
variance: 0.034789324584707786
---
header:
  frame_id: tomsa_1
  seq: 182
  stamp:
    nsecs: 500000000
    secs: 364
temperature: 92.18364214055653
variance: 0.03279749810884474
---
header:
  frame_id: tomsa_1
  seq: 183
  stamp:
    nsecs: 750000000
    secs: 366
temperature: 92.36858011656052
variance: 0.023993873630649174
---
header:
  frame_id: tomsa_1
  seq: 184
  stamp:
    nsecs: 0
    secs: 368
temperature: 91.63358734398724
variance: 0.0592622871835156
---
header:
  frame_id: tomsa_1
  seq: 185
  stamp:
    nsecs: 250000000
    secs: 370
temperature: 91.69602865860362
variance: 0.08204866310875265
---
header:
  frame_id: tomsa_1
  seq: 186
  stamp:
    nsecs: 500000000
    secs: 372
temperature: 91.52393600853007
variance: 0.11044972578104958
---
header:
  frame_id: tomsa_1
  seq: 187
  stamp:
    nsecs: 750000000
    secs: 374
temperature: 92.4576469099854
variance: 0.155615487690071
---
header:
  frame_id: tomsa_1
  seq: 188
  stamp:
    nsecs: 0
    secs: 376
temperature: 91.79088129118603
variance: 0.10904261488294753
---
header:
  frame_id: tomsa_1
  seq: 189
  stamp:
    nsecs: 250000000
    secs: 378
temperature: 91.76946730273738
variance: 0.1018422426566928
---
header:
  frame_id: tomsa_1
  seq: 190
  stamp:
    nsecs: 500000000
    secs: 380
temperature: 92.08181269634274
variance: 0.10226664205489211
---
header:
  frame_id: tomsa_1
  seq: 191
  stamp:
    nsecs: 750000000
    secs: 382
temperature: 91.73513597003722
variance: 0.0755428478738093
---
header:
  frame_id: tomsa_1
  seq: 192
  stamp:
    nsecs: 0
    secs: 384
temperature: 91.55455928837546
variance: 0.028790714317342075
---
header:
  frame_id: tomsa_1
  seq: 193
  stamp:
    nsecs: 250000000
    secs: 386
temperature: 92.43155117762116
variance: 0.09561974258033652
---
header:
  frame_id: tomsa_1
  seq: 194
  stamp:
    nsecs: 500000000
    secs: 388
temperature: 91.88451367787634
variance: 0.09106301178975572
---
header:
  frame_id: tomsa_1
  seq: 195
  stamp:
    nsecs: 750000000
    secs: 390
temperature: 92.02830205339254
variance: 0.0884325596381917
---
header:
  frame_id: tomsa_1
  seq: 196
  stamp:
    nsecs: 0
    secs: 392
temperature: 91.6255165408511
variance: 0.09875977252255838
---
header:
  frame_id: tomsa_1
  seq: 197
  stamp:
    nsecs: 250000000
    secs: 394
temperature: 92.17567720651674
variance: 0.07344745537314055
---
header:
  frame_id: tomsa_1
  seq: 198
  stamp:
    nsecs: 500000000
    secs: 396
temperature: 91.59506681031955
variance: 0.05074684241956604
---
header:
  frame_id: tomsa_1
  seq: 199
  stamp:
    nsecs: 750000000
    secs: 398
temperature: 92.32781893777712
variance: 0.08621490257854111
---
header:
  frame_id: tomsa_1
  seq: 200
  stamp:
    nsecs: 0
    secs: 400
temperature: 92.48712053911525
variance: 0.13418036296847902
---
header:
  frame_id: tomsa_1
  seq: 201
  stamp:
    nsecs: 250000000
    secs: 402
temperature: 91.54954186929899
variance: 0.1477680784682036
---
header:
  frame_id: tomsa_1
  seq: 202
  stamp:
    nsecs: 500000000
    secs: 404
temperature: 91.64744674194144
variance: 0.1610076578023798
---
header:
  frame_id: tomsa_1
  seq: 203
  stamp:
    nsecs: 750000000
    secs: 406
temperature: 92.31450489824896
variance: 0.14991192699571484
---
header:
  frame_id: tomsa_1
  seq: 204
  stamp:
    nsecs: 0
    secs: 408
temperature: 91.93311451496838
variance: 0.13338950964688592
---
header:
  frame_id: tomsa_1
  seq: 205
  stamp:
    nsecs: 250000000
    secs: 410
temperature: 91.62097061977295
variance: 0.07992558869292325
---
header:
  frame_id: tomsa_1
  seq: 206
  stamp:
    nsecs: 500000000
    secs: 412
temperature: 92.13374183022066
variance: 0.07293998840849614
---
header:
  frame_id: tomsa_1
  seq: 207
  stamp:
    nsecs: 750000000
    secs: 414
temperature: 91.67047758787706
variance: 0.07042228727768594
---
header:
  frame_id: tomsa_1
  seq: 208
  stamp:
    nsecs: 0
    secs: 416
temperature: 92.12365345578745
variance: 0.047245102517648685
---
header:
  frame_id: tomsa_1
  seq: 209
  stamp:
    nsecs: 250000000
    secs: 418
temperature: 92.47810859959819
variance: 0.10277357907782689
---
header:
  frame_id: tomsa_1
  seq: 210
  stamp:
    nsecs: 500000000
    secs: 420
temperature: 91.89957111244705
variance: 0.0723526784562765
---
header:
  frame_id: tomsa_1
  seq: 211
  stamp:
    nsecs: 750000000
    secs: 422
temperature: 91.51219334833208
variance: 0.11610672796867019
---
header:
  frame_id: tomsa_1
  seq: 212
  stamp:
    nsecs: 0
    secs: 424
temperature: 92.41839086885304
variance: 0.12593193892959798
---
header:
  frame_id: tomsa_1
  seq: 213
  stamp:
    nsecs: 250000000
    secs: 426
temperature: 92.26366034976121
variance: 0.1311554693744269
---
header:
  frame_id: tomsa_1
  seq: 214
  stamp:
    nsecs: 500000000
    secs: 428
temperature: 91.69369028871384
variance: 0.11548077731051982
---
header:
  frame_id: tomsa_1
  seq: 215
  stamp:
    nsecs: 750000000
    secs: 430
temperature: 92.18028529531479
variance: 0.12158413154448362
---
header:
  frame_id: tomsa_1
  seq: 216
  stamp:
    nsecs: 0
    secs: 432
temperature: 92.01850940963804
variance: 0.061044070502296745
---
header:
  frame_id: tomsa_1
  seq: 217
  stamp:
    nsecs: 250000000
    secs: 434
temperature: 91.98098496465187
variance: 0.03855768650135721
---
header:
  frame_id: tomsa_1
  seq: 218
  stamp:
    nsecs: 500000000
    secs: 436
temperature: 91.78450600443664
variance: 0.030014834092520946
---
header:
  frame_id: tomsa_1
  seq: 219
  stamp:
    nsecs: 750000000
    secs: 438
temperature: 91.79171083971791
variance: 0.02222429073530675
---
header:
  frame_id: tomsa_1
  seq: 220
  stamp:
    nsecs: 0
    secs: 440
temperature: 91.92809349372267
variance: 0.009290959828164646
---
header:
  frame_id: tomsa_1
  seq: 221
  stamp:
    nsecs: 250000000
    secs: 442
temperature: 92.10786307343527
variance: 0.014776914966098726
---
header:
  frame_id: tomsa_1
  seq: 222
  stamp:
    nsecs: 500000000
    secs: 444
temperature: 92.172253200659
variance: 0.025400762536569386
---
header:
  frame_id: tomsa_1
  seq: 223
  stamp:
    nsecs: 750000000
    secs: 446
temperature: 92.2232362656561
variance: 0.025947031995562142
---
header:
  frame_id: tomsa_1
  seq: 224
  stamp:
    nsecs: 0
    secs: 448
temperature: 91.96079578203273
variance: 0.013415365207487201
---
header:
  frame_id: tomsa_1
  seq: 225
  stamp:
    nsecs: 250000000
    secs: 450
temperature: 91.84107103656542
variance: 0.019860730566985757
---
header:
  frame_id: tomsa_1
  seq: 226
  stamp:
    nsecs: 500000000
    secs: 452
temperature: 91.87275240136357
variance: 0.0243019774693218
---
header:
  frame_id: tomsa_1
  seq: 227
  stamp:
    nsecs: 750000000
    secs: 454
temperature: 92.4500778630601
variance: 0.054236065515986476
---
header:
  frame_id: tomsa_1
  seq: 228
  stamp:
    nsecs: 0
    secs: 456
temperature: 92.27764225610981
variance: 0.05805345078309397
---
header:
  frame_id: tomsa_1
  seq: 229
  stamp:
    nsecs: 250000000
    secs: 458
temperature: 92.420836679513
variance: 0.06989384965907758
---
header:
  frame_id: tomsa_1
  seq: 230
  stamp:
    nsecs: 500000000
    secs: 460
temperature: 91.91677263236477
variance: 0.06077561144804807
---
header:
  frame_id: tomsa_1
  seq: 231
  stamp:
    nsecs: 750000000
    secs: 462
temperature: 91.87553698900825
variance: 0.06042614555377403
---
header:
  frame_id: tomsa_1
  seq: 232
  stamp:
    nsecs: 0
    secs: 464
temperature: 91.53837767144829
variance: 0.09790632189421448
---
header:
  frame_id: tomsa_1
  seq: 233
  stamp:
    nsecs: 250000000
    secs: 466
temperature: 91.68610353267675
variance: 0.08957898968873072
---
header:
  frame_id: tomsa_1
  seq: 234
  stamp:
    nsecs: 500000000
    secs: 468
temperature: 92.1207865984995
variance: 0.03997577294029762
---
header:
  frame_id: tomsa_1
  seq: 235
  stamp:
    nsecs: 750000000
    secs: 470
temperature: 91.84680709142832
variance: 0.038261031402523384
---
header:
  frame_id: tomsa_1
  seq: 236
  stamp:
    nsecs: 0
    secs: 472
temperature: 91.6691035810505
variance: 0.039958636597854834
---
header:
  frame_id: tomsa_1
  seq: 237
  stamp:
    nsecs: 250000000
    secs: 474
temperature: 91.76333963993333
variance: 0.027012234028654943
---
header:
  frame_id: tomsa_1
  seq: 238
  stamp:
    nsecs: 500000000
    secs: 476
temperature: 91.62575977015427
variance: 0.030759872804953757
---
header:
  frame_id: tomsa_1
  seq: 239
  stamp:
    nsecs: 750000000
    secs: 478
temperature: 91.99715586760551
variance: 0.017596910373764006
---
header:
  frame_id: tomsa_1
  seq: 240
  stamp:
    nsecs: 0
    secs: 480
temperature: 92.29164525812948
variance: 0.06106812734756326
---
header:
  frame_id: tomsa_1
  seq: 241
  stamp:
    nsecs: 250000000
    secs: 482
temperature: 91.70622391412044
variance: 0.05831455426869462
---
header:
  frame_id: tomsa_1
  seq: 242
  stamp:
    nsecs: 500000000
    secs: 484
temperature: 92.29081378121928
variance: 0.07888697549613988
---
header:
  frame_id: tomsa_1
  seq: 243
  stamp:
    nsecs: 750000000
    secs: 486
temperature: 92.47837715771422
variance: 0.07359631644714533
---
header:
  frame_id: tomsa_1
  seq: 244
  stamp:
    nsecs: 0
    secs: 488
temperature: 91.78155979495244
variance: 0.0944596136986859
---
header:
  frame_id: tomsa_1
  seq: 245
  stamp:
    nsecs: 250000000
    secs: 490
temperature: 92.33479870705459
variance: 0.09789778113582484
---
header:
  frame_id: tomsa_1
  seq: 246
  stamp:
    nsecs: 500000000
    secs: 492
temperature: 92.07052920564364
variance: 0.05907615019086282
---
header:
  frame_id: tomsa_1
  seq: 247
  stamp:
    nsecs: 750000000
    secs: 494
temperature: 92.31706977606305
variance: 0.060232468928180495
---
header:
  frame_id: tomsa_1
  seq: 248
  stamp:
    nsecs: 0
    secs: 496
temperature: 92.14220594758721
variance: 0.040406200941419286
---
header:
  frame_id: tomsa_1
  seq: 249
  stamp:
    nsecs: 250000000
    secs: 498
temperature: 91.9259742146191
variance: 0.023659493345829574
---
header:
  frame_id: tomsa_1
  seq: 250
  stamp:
    nsecs: 500000000
    secs: 500
temperature: 92.01708517121307
variance: 0.017356346228656262
---
header:
  frame_id: tomsa_1
  seq: 251
  stamp:
    nsecs: 750000000
    secs: 502
temperature: 92.15805458384249
variance: 0.017740284839030052
---
header:
  frame_id: tomsa_1
  seq: 252
  stamp:
    nsecs: 0
    secs: 504
temperature: 91.61596506087957
variance: 0.03889963879386714
---
header:
  frame_id: tomsa_1
  seq: 253
  stamp:
    nsecs: 250000000
    secs: 506
temperature: 91.59769813638358
variance: 0.04923530583895527
---
header:
  frame_id: tomsa_1
  seq: 254
  stamp:
    nsecs: 500000000
    secs: 508
temperature: 92.07966695174756
variance: 0.05688895062151074
---
header:
  frame_id: tomsa_1
  seq: 255
  stamp:
    nsecs: 750000000
    secs: 510
temperature: 92.2261852594531
variance: 0.07420504964608692
---
header:
  frame_id: tomsa_1
  seq: 256
  stamp:
    nsecs: 0
    secs: 512
temperature: 91.8773442850699
variance: 0.06182499945545013
---
header:
  frame_id: tomsa_1
  seq: 257
  stamp:
    nsecs: 250000000
    secs: 514
temperature: 91.50158600202877
variance: 0.07596950282430512
---
header:
  frame_id: tomsa_1
  seq: 258
  stamp:
    nsecs: 500000000
    secs: 516
temperature: 91.6916708536457
variance: 0.06765446212094874
---
header:
  frame_id: tomsa_1
  seq: 259
  stamp:
    nsecs: 750000000
    secs: 518
temperature: 91.51342195745889
variance: 0.07266498658182012
---
header:
  frame_id: tomsa_1
  seq: 260
  stamp:
    nsecs: 0
    secs: 520
temperature: 91.9867897021616
variance: 0.037389058680435995
---
header:
  frame_id: tomsa_1
  seq: 261
  stamp:
    nsecs: 250000000
    secs: 522
temperature: 92.09466944563722
variance: 0.05913129258157822
---
header:
  frame_id: tomsa_1
  seq: 262
  stamp:
    nsecs: 500000000
    secs: 524
temperature: 91.7155027020023
variance: 0.044544320496987796
---
header:
  frame_id: tomsa_1
  seq: 263
  stamp:
    nsecs: 750000000
    secs: 526
temperature: 92.48056177060555
variance: 0.10980651700842348
---
header:
  frame_id: tomsa_1
  seq: 264
  stamp:
    nsecs: 0
    secs: 528
temperature: 91.92048493446032
variance: 0.06389926238588957
---
header:
  frame_id: tomsa_1
  seq: 265
  stamp:
    nsecs: 250000000
    secs: 530
temperature: 91.5487184304365
variance: 0.10385846218864239
---
header:
  frame_id: tomsa_1
  seq: 266
  stamp:
    nsecs: 500000000
    secs: 532
temperature: 92.15123958703037
variance: 0.10759910724919564
---
header:
  frame_id: tomsa_1
  seq: 267
  stamp:
    nsecs: 750000000
    secs: 534
temperature: 92.45556147158075
variance: 0.12187475948619256
---
header:
  frame_id: tomsa_1
  seq: 268
  stamp:
    nsecs: 0
    secs: 536
temperature: 91.74305381897206
variance: 0.09997214475427538
---
header:
  frame_id: tomsa_1
  seq: 269
  stamp:
    nsecs: 250000000
    secs: 538
temperature: 91.69996251526366
variance: 0.11157477145120658
---
header:
  frame_id: tomsa_1
  seq: 270
  stamp:
    nsecs: 500000000
    secs: 540
temperature: 92.10233203032196
variance: 0.07845909086027661
---
header:
  frame_id: tomsa_1
  seq: 271
  stamp:
    nsecs: 750000000
    secs: 542
temperature: 91.97141374357821
variance: 0.07494318164373141
---
header:
  frame_id: tomsa_1
  seq: 272
  stamp:
    nsecs: 0
    secs: 544
temperature: 91.6715601140298
variance: 0.028688289273577534
---
header:
  frame_id: tomsa_1
  seq: 273
  stamp:
    nsecs: 250000000
    secs: 546
temperature: 92.22984357789605
variance: 0.04818037895256274
---
header:
  frame_id: tomsa_1
  seq: 274
  stamp:
    nsecs: 500000000
    secs: 548
temperature: 92.26598498648141
variance: 0.046221739139559355
---
header:
  frame_id: tomsa_1
  seq: 275
  stamp:
    nsecs: 750000000
    secs: 550
temperature: 92.45898979803425
variance: 0.07429330862444097
---
header:
  frame_id: tomsa_1
  seq: 276
  stamp:
    nsecs: 0
    secs: 552
temperature: 91.88458162742711
variance: 0.08064516638150045
---
header:
  frame_id: tomsa_1
  seq: 277
  stamp:
    nsecs: 250000000
    secs: 554
temperature: 92.45515405573457
variance: 0.043912059566002325
---
header:
  frame_id: tomsa_1
  seq: 278
  stamp:
    nsecs: 500000000
    secs: 556
temperature: 91.88317979890353
variance: 0.06717080616010235
---
header:
  frame_id: tomsa_1
  seq: 279
  stamp:
    nsecs: 750000000
    secs: 558
temperature: 92.40144384517222
variance: 0.07424666092880443
---
header:
  frame_id: tomsa_1
  seq: 280
  stamp:
    nsecs: 0
    secs: 560
temperature: 91.98455483537403
variance: 0.06427479940288856
---
header:
  frame_id: tomsa_1
  seq: 281
  stamp:
    nsecs: 250000000
    secs: 562
temperature: 92.28755763839953
variance: 0.052022587699124954
---
header:
  frame_id: tomsa_1
  seq: 282
  stamp:
    nsecs: 500000000
    secs: 564
temperature: 92.09237750412328
variance: 0.036399194629018625
---
header:
  frame_id: tomsa_1
  seq: 283
  stamp:
    nsecs: 750000000
    secs: 566
temperature: 92.0024885276163
variance: 0.026906064714016558
---
header:
  frame_id: tomsa_1
  seq: 284
  stamp:
    nsecs: 0
    secs: 568
temperature: 91.84114625862318
variance: 0.02160781444200735
---
header:
  frame_id: tomsa_1
  seq: 285
  stamp:
    nsecs: 250000000
    secs: 570
temperature: 91.80107421829123
variance: 0.031182740484143445
---
header:
  frame_id: tomsa_1
  seq: 286
  stamp:
    nsecs: 500000000
    secs: 572
temperature: 91.77159570978161
variance: 0.0154471322218987
---
header:
  frame_id: tomsa_1
  seq: 287
  stamp:
    nsecs: 750000000
    secs: 574
temperature: 92.38617999548762
variance: 0.0516626442559958
---
header:
  frame_id: tomsa_1
  seq: 288
  stamp:
    nsecs: 0
    secs: 576
temperature: 91.64106046635281
variance: 0.06649270825372934
---
header:
  frame_id: tomsa_1
  seq: 289
  stamp:
    nsecs: 250000000
    secs: 578
temperature: 92.0406224519929
variance: 0.06910388404091983
---
header:
  frame_id: tomsa_1
  seq: 290
  stamp:
    nsecs: 500000000
    secs: 580
temperature: 91.94990890895106
variance: 0.06508543825215433
---
header:
  frame_id: tomsa_1
  seq: 291
  stamp:
    nsecs: 750000000
    secs: 582
temperature: 92.25853673898575
variance: 0.06674076797639211
---
header:
  frame_id: tomsa_1
  seq: 292
  stamp:
    nsecs: 0
    secs: 584
temperature: 91.5227374778015
variance: 0.07173447877720082
---
header:
  frame_id: tomsa_1
  seq: 293
  stamp:
    nsecs: 250000000
    secs: 586
temperature: 91.82411372141416
variance: 0.05941196038863863
---
header:
  frame_id: tomsa_1
  seq: 294
  stamp:
    nsecs: 500000000
    secs: 588
temperature: 92.18774751385567
variance: 0.0700219499549904
---
header:
  frame_id: tomsa_1
  seq: 295
  stamp:
    nsecs: 750000000
    secs: 590
temperature: 92.30347769231123
variance: 0.09020755245040518
---
header:
  frame_id: tomsa_1
  seq: 296
  stamp:
    nsecs: 0
    secs: 592
temperature: 92.38130607357894
variance: 0.10436638482254283
---
header:
  frame_id: tomsa_1
  seq: 297
  stamp:
    nsecs: 250000000
    secs: 594
temperature: 91.81657931215933
variance: 0.056928290600803996
---
header:
  frame_id: tomsa_1
  seq: 298
  stamp:
    nsecs: 500000000
    secs: 596
temperature: 91.69115816439415
variance: 0.07456954463651377
---
header:
  frame_id: tomsa_1
  seq: 299
  stamp:
    nsecs: 750000000
    secs: 598
temperature: 92.23130218523384
variance: 0.07681898019027232
---
header:
  frame_id: tomsa_1
  seq: 300
  stamp:
    nsecs: 0
    secs: 600
temperature: 91.90136172047585
variance: 0.06751134365002584
---
header:
  frame_id: tomsa_1
  seq: 301
  stamp:
    nsecs: 250000000
    secs: 602
temperature: 92.49907678840269
variance: 0.08748868958673033
---
header:
  frame_id: tomsa_1
  seq: 302
  stamp:
    nsecs: 500000000
    secs: 604
temperature: 91.81752123373677
variance: 0.087409214179999
---
header:
  frame_id: tomsa_1
  seq: 303
  stamp:
    nsecs: 750000000
    secs: 606
temperature: 91.70392021411092
variance: 0.08571532756595125
---
header:
  frame_id: tomsa_1
  seq: 304
  stamp:
    nsecs: 0
    secs: 608
temperature: 92.40405847039028
variance: 0.10435699329975952
---
header:
  frame_id: tomsa_1
  seq: 305
  stamp:
    nsecs: 250000000
    secs: 610
temperature: 91.53195885682355
variance: 0.15039746164455864
---
header:
  frame_id: tomsa_1
  seq: 306
  stamp:
    nsecs: 500000000
    secs: 612
temperature: 91.7893645578922
variance: 0.08683995401289728
---
header:
  frame_id: tomsa_1
  seq: 307
  stamp:
    nsecs: 750000000
    secs: 614
temperature: 92.45652614041478
variance: 0.14403307339860424
---
header:
  frame_id: tomsa_1
  seq: 308
  stamp:
    nsecs: 0
    secs: 616
temperature: 91.94412585417804
variance: 0.12701083559179238
---
header:
  frame_id: tomsa_1
  seq: 309
  stamp:
    nsecs: 250000000
    secs: 618
temperature: 91.84814587916672
variance: 0.09221367418416707
---
header:
  frame_id: tomsa_1
  seq: 310
  stamp:
    nsecs: 500000000
    secs: 620
temperature: 91.86761168083113
variance: 0.05894319280320519
---
header:
  frame_id: tomsa_1
  seq: 311
  stamp:
    nsecs: 750000000
    secs: 622
temperature: 92.4752807920507
variance: 0.08159934323007513
---
header:
  frame_id: tomsa_1
  seq: 312
  stamp:
    nsecs: 0
    secs: 624
temperature: 92.24747852497909
variance: 0.06031252418139869
---
header:
  frame_id: tomsa_1
  seq: 313
  stamp:
    nsecs: 250000000
    secs: 626
temperature: 91.52262767707468
variance: 0.11106123564890036
---
header:
  frame_id: tomsa_1
  seq: 314
  stamp:
    nsecs: 500000000
    secs: 628
temperature: 92.3384726670649
variance: 0.12126938503722384
---
header:
  frame_id: tomsa_1
  seq: 315
  stamp:
    nsecs: 750000000
    secs: 630
temperature: 91.79620287037542
variance: 0.12844585942593534
---
header:
  frame_id: tomsa_1
  seq: 316
  stamp:
    nsecs: 0
    secs: 632
temperature: 91.88364034314363
variance: 0.08996269962696965
---
header:
  frame_id: tomsa_1
  seq: 317
  stamp:
    nsecs: 250000000
    secs: 634
temperature: 92.12140975383983
variance: 0.07789203838166645
---
header:
  frame_id: tomsa_1
  seq: 318
  stamp:
    nsecs: 500000000
    secs: 636
temperature: 92.0499258197151
variance: 0.03593519342545073
---
header:
  frame_id: tomsa_1
  seq: 319
  stamp:
    nsecs: 750000000
    secs: 638
temperature: 91.98243388398852
variance: 0.013415475074831795
---
header:
  frame_id: tomsa_1
  seq: 320
  stamp:
    nsecs: 0
    secs: 640
temperature: 91.54175531692972
variance: 0.041129768778643064
---
header:
  frame_id: tomsa_1
  seq: 321
  stamp:
    nsecs: 250000000
    secs: 642
temperature: 91.81774989315767
variance: 0.04267289308112928
---
header:
  frame_id: tomsa_1
  seq: 322
  stamp:
    nsecs: 500000000
    secs: 644
temperature: 91.93390502251235
variance: 0.03189115144055818
---
header:
  frame_id: tomsa_1
  seq: 323
  stamp:
    nsecs: 750000000
    secs: 646
temperature: 92.03711306809188
variance: 0.03097044385874151
---
header:
  frame_id: tomsa_1
  seq: 324
  stamp:
    nsecs: 0
    secs: 648
temperature: 92.19552529143948
variance: 0.04845067381336353
---
header:
  frame_id: tomsa_1
  seq: 325
  stamp:
    nsecs: 250000000
    secs: 650
temperature: 91.73726243219349
variance: 0.026143190325765554
---
header:
  frame_id: tomsa_1
  seq: 326
  stamp:
    nsecs: 500000000
    secs: 652
temperature: 91.87309759751189
variance: 0.02383137944421527
---
header:
  frame_id: tomsa_1
  seq: 327
  stamp:
    nsecs: 750000000
    secs: 654
temperature: 91.75020913718532
variance: 0.030808444108718434
---
header:
  frame_id: tomsa_1
  seq: 328
  stamp:
    nsecs: 0
    secs: 656
temperature: 91.93292615511815
variance: 0.027607955600684204
---
header:
  frame_id: tomsa_1
  seq: 329
  stamp:
    nsecs: 250000000
    secs: 658
temperature: 92.33620031325489
variance: 0.04752704224624281
---
header:
  frame_id: tomsa_1
  seq: 330
  stamp:
    nsecs: 500000000
    secs: 660
temperature: 92.04671779408919
variance: 0.039494255651619944
---
header:
  frame_id: tomsa_1
  seq: 331
  stamp:
    nsecs: 750000000
    secs: 662
temperature: 91.50181292017875
variance: 0.07859000834458303
---
header:
  frame_id: tomsa_1
  seq: 332
  stamp:
    nsecs: 0
    secs: 664
temperature: 91.89916416695273
variance: 0.07240646114049157
---
header:
  frame_id: tomsa_1
  seq: 333
  stamp:
    nsecs: 250000000
    secs: 666
temperature: 91.83488973650064
variance: 0.07435356959741454
---
header:
  frame_id: tomsa_1
  seq: 334
  stamp:
    nsecs: 500000000
    secs: 668
temperature: 91.52472525203275
variance: 0.045837263964533234
---
header:
  frame_id: tomsa_1
  seq: 335
  stamp:
    nsecs: 750000000
    secs: 670
temperature: 92.14791233549495
variance: 0.05902225035907569
---
header:
  frame_id: tomsa_1
  seq: 336
  stamp:
    nsecs: 0
    secs: 672
temperature: 91.83814881244625
variance: 0.03946719656661568
---
header:
  frame_id: tomsa_1
  seq: 337
  stamp:
    nsecs: 250000000
    secs: 674
temperature: 91.85245424154988
variance: 0.03887842475589505
---
header:
  frame_id: tomsa_1
  seq: 338
  stamp:
    nsecs: 500000000
    secs: 676
temperature: 92.28306381696068
variance: 0.07016694401016862
---
header:
  frame_id: tomsa_1
  seq: 339
  stamp:
    nsecs: 750000000
    secs: 678
temperature: 91.98462180911298
variance: 0.02958989976533219
---
header:
  frame_id: tomsa_1
  seq: 340
  stamp:
    nsecs: 0
    secs: 680
temperature: 91.54206499283124
variance: 0.05762047026608748
---
header:
  frame_id: tomsa_1
  seq: 341
  stamp:
    nsecs: 250000000
    secs: 682
temperature: 92.18180924902359
variance: 0.06800482365534635
---
header:
  frame_id: tomsa_1
  seq: 342
  stamp:
    nsecs: 500000000
    secs: 684
temperature: 92.23242261904917
variance: 0.07342146599992273
---
header:
  frame_id: tomsa_1
  seq: 343
  stamp:
    nsecs: 750000000
    secs: 686
temperature: 91.57890112220929
variance: 0.08564509898217566
---
header:
  frame_id: tomsa_1
  seq: 344
  stamp:
    nsecs: 0
    secs: 688
temperature: 91.86627684135723
variance: 0.08406780371046513
---
header:
  frame_id: tomsa_1
  seq: 345
  stamp:
    nsecs: 250000000
    secs: 690
temperature: 92.08210500789468
variance: 0.05766763088652639
---
header:
  frame_id: tomsa_1
  seq: 346
  stamp:
    nsecs: 500000000
    secs: 692
temperature: 92.49518141039744
variance: 0.09763576135157928
---
header:
  frame_id: tomsa_1
  seq: 347
  stamp:
    nsecs: 750000000
    secs: 694
temperature: 92.21647175685952
variance: 0.09651878707986261
---
header:
  frame_id: tomsa_1
  seq: 348
  stamp:
    nsecs: 0
    secs: 696
temperature: 91.86103583550911
variance: 0.05633916772958503
---
header:
  frame_id: tomsa_1
  seq: 349
  stamp:
    nsecs: 250000000
    secs: 698
temperature: 91.81179461420102
variance: 0.06199944006574796
---
header:
  frame_id: tomsa_1
  seq: 350
  stamp:
    nsecs: 500000000
    secs: 700
temperature: 91.55114161652443
variance: 0.10948839665622576
---
header:
  frame_id: tomsa_1
  seq: 351
  stamp:
    nsecs: 750000000
    secs: 702
temperature: 91.70371215641356
variance: 0.048871772993027765
---
header:
  frame_id: tomsa_1
  seq: 352
  stamp:
    nsecs: 0
    secs: 704
temperature: 92.2548750090012
variance: 0.055062405838161264
---
header:
  frame_id: tomsa_1
  seq: 353
  stamp:
    nsecs: 250000000
    secs: 706
temperature: 91.58316501872834
variance: 0.06469055600752341
---
header:
  frame_id: tomsa_1
  seq: 354
  stamp:
    nsecs: 500000000
    secs: 708
temperature: 91.98423033025433
variance: 0.07157634300741018
---
header:
  frame_id: tomsa_1
  seq: 355
  stamp:
    nsecs: 750000000
    secs: 710
temperature: 91.63039931094352
variance: 0.06420283699882193
---
header:
  frame_id: tomsa_1
  seq: 356
  stamp:
    nsecs: 0
    secs: 712
temperature: 91.58594783329377
variance: 0.07243079180140923
---
header:
  frame_id: tomsa_1
  seq: 357
  stamp:
    nsecs: 250000000
    secs: 714
temperature: 92.03371654440606
variance: 0.04070002600579897
---
header:
  frame_id: tomsa_1
  seq: 358
  stamp:
    nsecs: 500000000
    secs: 716
temperature: 91.9592809665085
variance: 0.03620462656233546
---
header:
  frame_id: tomsa_1
  seq: 359
  stamp:
    nsecs: 750000000
    secs: 718
temperature: 91.62266914568396
variance: 0.03607578649831773
---
header:
  frame_id: tomsa_1
  seq: 360
  stamp:
    nsecs: 0
    secs: 720
temperature: 91.8056468675594
variance: 0.03145595060718123
---
header:
  frame_id: tomsa_1
  seq: 361
  stamp:
    nsecs: 250000000
    secs: 722
temperature: 92.38828849260692
variance: 0.0652928467700928
---
header:
  frame_id: tomsa_1
  seq: 362
  stamp:
    nsecs: 500000000
    secs: 724
temperature: 92.18728708025787
variance: 0.07347658102862921
---
header:
  frame_id: tomsa_1
  seq: 363
  stamp:
    nsecs: 750000000
    secs: 726
temperature: 92.29956890409609
variance: 0.08746399842183036
---
header:
  frame_id: tomsa_1
  seq: 364
  stamp:
    nsecs: 0
    secs: 728
temperature: 91.55784786886369
variance: 0.09949356890975085
---
header:
  frame_id: tomsa_1
  seq: 365
  stamp:
    nsecs: 250000000
    secs: 730
temperature: 92.04121983162953
variance: 0.08556161519252017
---
header:
  frame_id: tomsa_1
  seq: 366
  stamp:
    nsecs: 500000000
    secs: 732
temperature: 91.65880985993404
variance: 0.08507881587340799
---
header:
  frame_id: tomsa_1
  seq: 367
  stamp:
    nsecs: 750000000
    secs: 734
temperature: 91.80192220955934
variance: 0.07210058669681059
---
header:
  frame_id: tomsa_1
  seq: 368
  stamp:
    nsecs: 0
    secs: 736
temperature: 92.33435540951672
variance: 0.07824541098011888
---
header:
  frame_id: tomsa_1
  seq: 369
  stamp:
    nsecs: 250000000
    secs: 738
temperature: 92.12415449650776
variance: 0.05684796448020589
---
header:
  frame_id: tomsa_1
  seq: 370
  stamp:
    nsecs: 500000000
    secs: 740
temperature: 91.71842435476005
variance: 0.0671762215939423
---
header:
  frame_id: tomsa_1
  seq: 371
  stamp:
    nsecs: 750000000
    secs: 742
temperature: 92.34737125976571
variance: 0.06902188393341317
---
header:
  frame_id: tomsa_1
  seq: 372
  stamp:
    nsecs: 0
    secs: 744
temperature: 91.87639381663571
variance: 0.06206520235626676
---
header:
  frame_id: tomsa_1
  seq: 373
  stamp:
    nsecs: 250000000
    secs: 746
temperature: 92.47904402905145
variance: 0.08012760815502987
---
header:
  frame_id: tomsa_1
  seq: 374
  stamp:
    nsecs: 500000000
    secs: 748
temperature: 92.31090334554573
variance: 0.0868338672482952
---
header:
  frame_id: tomsa_1
  seq: 375
  stamp:
    nsecs: 750000000
    secs: 750
temperature: 92.09651687844105
variance: 0.044976605550575185
---
header:
  frame_id: tomsa_1
  seq: 376
  stamp:
    nsecs: 0
    secs: 752
temperature: 91.86995540566117
variance: 0.05751181720697442
---
header:
  frame_id: tomsa_1
  seq: 377
  stamp:
    nsecs: 250000000
    secs: 754
temperature: 92.45049839575499
variance: 0.052797948585270524
---
header:
  frame_id: tomsa_1
  seq: 378
  stamp:
    nsecs: 500000000
    secs: 756
temperature: 92.21306182375422
variance: 0.038832017097150534
---
header:
  frame_id: tomsa_1
  seq: 379
  stamp:
    nsecs: 750000000
    secs: 758
temperature: 92.12061679044885
variance: 0.035284957452718
---
header:
  frame_id: tomsa_1
  seq: 380
  stamp:
    nsecs: 0
    secs: 760
temperature: 91.51974154189722
variance: 0.1008811815866
---
header:
  frame_id: tomsa_1
  seq: 381
  stamp:
    nsecs: 250000000
    secs: 762
temperature: 92.31104907912419
variance: 0.10293104684604863
---
header:
  frame_id: tomsa_1
  seq: 382
  stamp:
    nsecs: 500000000
    secs: 764
temperature: 91.91230657219057
variance: 0.07877093988860843
---
header:
  frame_id: tomsa_1
  seq: 383
  stamp:
    nsecs: 750000000
    secs: 766
temperature: 92.33790001481587
variance: 0.09113700855172598
---
header:
  frame_id: tomsa_1
  seq: 384
  stamp:
    nsecs: 0
    secs: 768
temperature: 92.40431237758615
variance: 0.11312593867768009
---
header:
  frame_id: tomsa_1
  seq: 385
  stamp:
    nsecs: 250000000
    secs: 770
temperature: 92.39806603457673
variance: 0.03372871471477349
---
header:
  frame_id: tomsa_1
  seq: 386
  stamp:
    nsecs: 500000000
    secs: 772
temperature: 91.8136329221805
variance: 0.06569152281759946
---
header:
  frame_id: tomsa_1
  seq: 387
  stamp:
    nsecs: 750000000
    secs: 774
temperature: 91.69602381092132
variance: 0.09575051106511205
---
header:
