header:
  frame_id: tomsa_1
  seq: 0
  stamp:
    nsecs: 0
    secs: 0
pose:
  orientation:
    w: 1.0
    x: 0.0
    y: 0.0
    z: 0.0
  position:
    x: 0.0
    y: 0.0
    z: 0.0
---
header:
  frame_id: tomsa_1
  seq: 1
  stamp:
    nsecs: 250000000
    secs: 2
pose:
  orientation:
    w: 1.0
    x: 0.0
    y: 0.0
    z: 0.0
  position:
    x: 0.0
    y: 0.0
    z: 1.5
---
header:
  frame_id: tomsa_1
  seq: 2
  stamp:
    nsecs: 500000000
    secs: 4
pose:
  orientation:
    w: 0.9848077530122081
    x: 0.0
    y: 0.0
    z: 0.17364817766693003
  position:
    x: 0.0
    y: 0.0
    z: 3.0
---
header:
  frame_id: tomsa_1
  seq: 3
  stamp:
    nsecs: 750000000
    secs: 6
pose:
  orientation:
    w: 0.9396926207859083
    x: 0.0
    y: 0.0
    z: 0.3420201433256691
  position:
    x: 0.0
    y: 0.0
    z: 4.5
---
header:
  frame_id: tomsa_1
  seq: 4
  stamp:
    nsecs: 0
    secs: 8
pose:
  orientation:
    w: 0.8660254037844388
    x: 0.0
    y: 0.0
    z: 0.4999999999999999
  position:
    x: 0.0
    y: 0.0
    z: 6.0
---
header:
  frame_id: tomsa_1
  seq: 5
  stamp:
    nsecs: 250000000
    secs: 10
pose:
  orientation:
    w: 0.7660444431189782
    x: 0.0
    y: 0.0
    z: 0.6427876096865391
  position:
    x: 0.0
    y: 0.0
    z: 7.0
---
header:
  frame_id: tomsa_1
  seq: 6
  stamp:
    nsecs: 500000000
    secs: 12
pose:
  orientation:
    w: 0.7071067811865476
    x: 0.0
    y: 0.0
    z: 0.7071067811865476
  position:
    x: 0.965513624428793
    y: 0.99725582054529
    z: 7.9854472432485
---
header:
  frame_id: tomsa_1
  seq: 7
  stamp:
    nsecs: 750000000
    secs: 14
pose:
  orientation:
    w: 0.7071067811865476
    x: 0.0
    y: 0.0
    z: 0.7071067811865476
  position:
    x: 1.96020360370977
    y: 1.997734970763
    z: 8.97595504467152
---
header:
  frame_id: tomsa_1
  seq: 8
  stamp:
    nsecs: 0
    secs: 16
pose:
  orientation:
    w: 0.7071067811865476
    x: 0.0
    y: 0.0
    z: 0.7071067811865476
  position:
    x: 2.95036449033402
    y: 2.96728213697531
    z: 9.980102396291
---
header:
  frame_id: tomsa_1
  seq: 9
  stamp:
    nsecs: 250000000
    secs: 18
pose:
  orientation:
    w: 0.7071067811865476
    x: 0.0
    y: 0.0
    z: 0.7071067811865476
  position:
    x: 3.98033859563393
    y: 3.95694104114366
    z: 10.9935704504954
---
header:
  frame_id: tomsa_1
  seq: 10
  stamp:
    nsecs: 500000000
    secs: 20
pose:
  orientation:
    w: 0.7071067811865476
    x: 0.0
    y: 0.0
    z: 0.7071067811865476
  position:
    x: 4.954050109274
    y: 4.97247929627032
    z: 11.9754576416558
---
header:
  frame_id: tomsa_1
  seq: 11
  stamp:
    nsecs: 750000000
    secs: 22
pose:
  orientation:
    w: 0.7071067811865476
    x: 0.0
    y: 0.0
    z: 0.7071067811865476
  position:
    x: 5.96772870820081
    y: 5.96779863890802
    z: 12.9720414499578
---
header:
  frame_id: tomsa_1
  seq: 12
  stamp:
    nsecs: 0
    secs: 24
pose:
  orientation:
    w: 0.7071067811865476
    x: 0.0
    y: 0.0
    z: 0.7071067811865476
  position:
    x: 6.99354374285933
    y: 6.98936717872079
    z: 13.9843649974418
---
header:
  frame_id: tomsa_1
  seq: 13
  stamp:
    nsecs: 250000000
    secs: 26
pose:
  orientation:
    w: 0.7071067811865476
    x: 0.0
    y: 0.0
    z: 0.7071067811865476
  position:
    x: 7.9933620412162
    y: 7.96644299492525
    z: 14.9520428594532
---
header:
  frame_id: tomsa_1
  seq: 14
  stamp:
    nsecs: 500000000
    secs: 28
pose:
  orientation:
    w: 0.7071067811865476
    x: 0.0
    y: 0.0
    z: 0.7071067811865476
  position:
    x: 8.97098650508819
    y: 8.96985049134482
    z: 15.9854187009461
---
header:
  frame_id: tomsa_1
  seq: 15
  stamp:
    nsecs: 750000000
    secs: 30
pose:
  orientation:
    w: 0.7071067811865476
    x: 0.0
    y: 0.0
    z: 0.7071067811865476
  position:
    x: 9.95259073983691
    y: 9.96425664739348
    z: 16.999776354169
---
header:
  frame_id: tomsa_1
  seq: 16
  stamp:
    nsecs: 0
    secs: 32
pose:
  orientation:
    w: 0.7071067811865476
    x: 0.0
    y: 0.0
    z: 0.7071067811865476
  position:
    x: 10.9683294104383
    y: 10.9711350697063
    z: 17.9591170559062
---
header:
  frame_id: tomsa_1
  seq: 17
  stamp:
    nsecs: 250000000
    secs: 34
pose:
  orientation:
    w: 0.7071067811865476
    x: 0.0
    y: 0.0
    z: 0.7071067811865476
  position:
    x: 11.9712170112562
    y: 11.973653621806
    z: 18.967793906104
---
header:
  frame_id: tomsa_1
  seq: 18
  stamp:
    nsecs: 500000000
    secs: 36
pose:
  orientation:
    w: 0.7071067811865476
    x: 0.0
    y: 0.0
    z: 0.7071067811865476
  position:
    x: 12.9727706548678
    y: 12.9941773542494
    z: 19.9734768162862
---
header:
  frame_id: tomsa_1
  seq: 19
  stamp:
    nsecs: 750000000
    secs: 38
pose:
  orientation:
    w: 0.7071067811865476
    x: 0.0
    y: 0.0
    z: 0.7071067811865476
  position:
    x: 13.96279653525
    y: 13.9938572751238
    z: 20.9742979494069
---
header:
  frame_id: tomsa_1
  seq: 20
  stamp:
    nsecs: 0
    secs: 40
pose:
  orientation:
    w: 0.7071067811865476
    x: 0.0
    y: 0.0
    z: 0.7071067811865476
  position:
    x: 14.9800458767934
    y: 14.9752846360948
    z: 21.9800532667986
---
header:
  frame_id: tomsa_1
  seq: 21
  stamp:
    nsecs: 250000000
    secs: 42
pose:
  orientation:
    w: 0.7071067811865476
    x: 0.0
    y: 0.0
    z: 0.7071067811865476
  position:
    x: 15.9718413617135
    y: 15.9717410928446
    z: 22.9507888982645
---
header:
  frame_id: tomsa_1
  seq: 22
  stamp:
    nsecs: 500000000
    secs: 44
pose:
  orientation:
    w: 0.7071067811865476
    x: 0.0
    y: 0.0
    z: 0.7071067811865476
  position:
    x: 16.9767664609342
    y: 16.9553650642047
    z: 23.9745734991118
---
header:
  frame_id: tomsa_1
  seq: 23
  stamp:
    nsecs: 750000000
    secs: 46
pose:
  orientation:
    w: 0.7071067811865476
    x: 0.0
    y: 0.0
    z: 0.7071067811865476
  position:
    x: 17.9915489069528
    y: 17.9749389283962
    z: 24.9614923219588
---
header:
  frame_id: tomsa_1
  seq: 24
  stamp:
    nsecs: 0
    secs: 48
pose:
  orientation:
    w: 0.7071067811865476
    x: 0.0
    y: 0.0
    z: 0.7071067811865476
  position:
    x: 18.9565392183022
    y: 18.994393771832
    z: 25.9898695226959
---
header:
  frame_id: tomsa_1
  seq: 25
  stamp:
    nsecs: 250000000
    secs: 50
pose:
  orientation:
    w: 0.7071067811865476
    x: 0.0
    y: 0.0
    z: 0.7071067811865476
  position:
    x: 19.9752857085956
    y: 19.9924337420666
    z: 26.962993960698
---
header:
  frame_id: tomsa_1
  seq: 26
  stamp:
    nsecs: 500000000
    secs: 52
pose:
  orientation:
    w: 0.7660444431189782
    x: 0.0
    y: 0.0
    z: 0.6427876096865391
  position:
    x: 19.9647466290432
    y: 19.9943937066157
    z: 27.9625980641711
---
header:
  frame_id: tomsa_1
  seq: 27
  stamp:
    nsecs: 750000000
    secs: 54
pose:
  orientation:
    w: 0.8660254037844388
    x: 0.0
    y: 0.0
    z: 0.4999999999999999
  position:
    x: 19.9725869644463
    y: 19.9967104336031
    z: 28.9503211690314
---
header:
  frame_id: tomsa_1
  seq: 28
  stamp:
    nsecs: 0
    secs: 56
pose:
  orientation:
    w: 0.9396926207859083
    x: 0.0
    y: 0.0
    z: 0.3420201433256691
  position:
    x: 19.9766673073134
    y: 19.9577062873034
    z: 29.961989808358
---
header:
  frame_id: tomsa_1
  seq: 29
  stamp:
    nsecs: 250000000
    secs: 58
pose:
  orientation:
    w: 0.9848077530122081
    x: 0.0
    y: 0.0
    z: 0.17364817766693003
  position:
    x: 19.9712607079488
    y: 19.9911990018136
    z: 29.9702344844991
---
header:
  frame_id: tomsa_1
  seq: 30
  stamp:
    nsecs: 500000000
    secs: 60
pose:
  orientation:
    w: 1.0
    x: 0.0
    y: 0.0
    z: 0.0
  position:
    x: 19.9947467990879
    y: 19.9621756367988
    z: 29.9926353531917
---
header:
  frame_id: tomsa_1
  seq: 31
  stamp:
    nsecs: 750000000
    secs: 62
pose:
  orientation:
    w: 1.0
    x: 0.0
    y: 0.0
    z: 0.0
  position:
    x: 20.9860302099234
    y: 19.9740658890539
    z: 29.9803153242342
---
header:
  frame_id: tomsa_1
  seq: 32
  stamp:
    nsecs: 0
    secs: 64
pose:
  orientation:
    w: 1.0
    x: 0.0
    y: 0.0
    z: 0.0
  position:
    x: 21.9795618540345
    y: 19.962689283192
    z: 29.9795370868683
---
header:
  frame_id: tomsa_1
  seq: 33
  stamp:
    nsecs: 250000000
    secs: 66
pose:
  orientation:
    w: 1.0
    x: 0.0
    y: 0.0
    z: 0.0
  position:
    x: 22.9906841015368
    y: 19.9541476455727
    z: 29.9985212922491
---
header:
  frame_id: tomsa_1
  seq: 34
  stamp:
    nsecs: 500000000
    secs: 68
pose:
  orientation:
    w: 1.0
    x: 0.0
    y: 0.0
    z: 0.0
  position:
    x: 23.9810104090169
    y: 19.9562568236773
    z: 29.9686487761509
---
header:
  frame_id: tomsa_1
  seq: 35
  stamp:
    nsecs: 750000000
    secs: 70
pose:
  orientation:
    w: 1.0
    x: 0.0
    y: 0.0
    z: 0.0
  position:
    x: 24.9686943141556
    y: 19.9681715523718
    z: 29.986078517643
---
header:
  frame_id: tomsa_1
  seq: 36
  stamp:
    nsecs: 0
    secs: 72
pose:
  orientation:
    w: 1.0
    x: 0.0
    y: 0.0
    z: 0.0
  position:
    x: 25.970985751113
    y: 19.9706997996681
    z: 29.9615534486673
---
header:
  frame_id: tomsa_1
  seq: 37
  stamp:
    nsecs: 250000000
    secs: 74
pose:
  orientation:
    w: 1.0
    x: 0.0
    y: 0.0
    z: 0.0
  position:
    x: 26.9595365281762
    y: 19.9701377669971
    z: 29.9623058058732
---
header:
  frame_id: tomsa_1
  seq: 38
  stamp:
    nsecs: 500000000
    secs: 76
pose:
  orientation:
    w: 1.0
    x: 0.0
    y: 0.0
    z: 0.0
  position:
    x: 27.9689335542576
    y: 19.9956364843403
    z: 29.9542151246247
---
header:
  frame_id: tomsa_1
  seq: 39
  stamp:
    nsecs: 750000000
    secs: 78
pose:
  orientation:
    w: 1.0
    x: 0.0
    y: 0.0
    z: 0.0
  position:
    x: 28.9884721730366
    y: 19.9691965980353
    z: 29.9625060496017
---
header:
  frame_id: tomsa_1
  seq: 40
  stamp:
    nsecs: 0
    secs: 80
pose:
  orientation:
    w: 1.0
    x: 0.0
    y: 0.0
    z: 0.0
  position:
    x: 29.9589279349033
    y: 19.9844950770926
    z: 29.9642188131529
---
header:
  frame_id: tomsa_1
  seq: 41
  stamp:
    nsecs: 250000000
    secs: 82
pose:
  orientation:
    w: 1.0
    x: 0.0
    y: 0.0
    z: 0.0
  position:
    x: 30.9997185835869
    y: 19.994548465146
    z: 29.9712971205461
---
header:
  frame_id: tomsa_1
  seq: 42
  stamp:
    nsecs: 500000000
    secs: 84
pose:
  orientation:
    w: 1.0
    x: 0.0
    y: 0.0
    z: 0.0
  position:
    x: 31.9730943906675
    y: 19.9782304080454
    z: 29.9727940109379
---
header:
  frame_id: tomsa_1
  seq: 43
  stamp:
    nsecs: 750000000
    secs: 86
pose:
  orientation:
    w: 1.0
    x: 0.0
    y: 0.0
    z: 0.0
  position:
    x: 32.9715357476489
    y: 19.9971393980141
    z: 29.9994925451264
---
header:
  frame_id: tomsa_1
  seq: 44
  stamp:
    nsecs: 0
    secs: 88
pose:
  orientation:
    w: 1.0
    x: 0.0
    y: 0.0
    z: 0.0
  position:
    x: 33.9895869867438
    y: 19.9567025058131
    z: 29.9989393569595
---
header:
  frame_id: tomsa_1
  seq: 45
  stamp:
    nsecs: 250000000
    secs: 90
pose:
  orientation:
    w: 1.0
    x: 0.0
    y: 0.0
    z: 0.0
  position:
    x: 34.9903142045932
    y: 19.9639525830187
    z: 29.9881869829433
---
header:
  frame_id: tomsa_1
  seq: 46
  stamp:
    nsecs: 500000000
    secs: 92
pose:
  orientation:
    w: 1.0
    x: 0.0
    y: 0.0
    z: 0.0
  position:
    x: 35.9769897300903
    y: 19.9876937707401
    z: 29.992998145243
---
header:
  frame_id: tomsa_1
  seq: 47
  stamp:
    nsecs: 750000000
    secs: 94
pose:
  orientation:
    w: 1.0
    x: 0.0
    y: 0.0
    z: 0.0
  position:
    x: 36.9577891069592
    y: 19.9661719934069
    z: 29.9960888023872
---
header:
  frame_id: tomsa_1
  seq: 48
  stamp:
    nsecs: 0
    secs: 96
pose:
  orientation:
    w: 1.0
    x: 0.0
    y: 0.0
    z: 0.0
  position:
    x: 37.9886840105721
    y: 19.9601755607296
    z: 29.986970453869
---
header:
  frame_id: tomsa_1
  seq: 49
  stamp:
    nsecs: 250000000
    secs: 98
pose:
  orientation:
    w: 1.0
    x: 0.0
    y: 0.0
    z: 0.0
  position:
    x: 38.9528227056583
    y: 19.9760725074887
    z: 29.9831206249883
---
header:
  frame_id: tomsa_1
  seq: 50
  stamp:
    nsecs: 500000000
    secs: 100
pose:
  orientation:
    w: 1.0
    x: 0.0
    y: 0.0
    z: 0.0
  position:
    x: 39.9935765994314
    y: 19.9811365146259
    z: 29.9784196231601
---
header:
  frame_id: tomsa_1
  seq: 51
  stamp:
    nsecs: 750000000
    secs: 102
pose:
  orientation:
    w: 1.0
    x: 0.0
    y: 0.0
    z: 0.0
  position:
    x: 40.9887943561795
    y: 19.9967529592176
    z: 29.9818503955865
---
header:
  frame_id: tomsa_1
  seq: 52
  stamp:
    nsecs: 0
    secs: 104
pose:
  orientation:
    w: 1.0
    x: 0.0
    y: 0.0
    z: 0.0
  position:
    x: 41.9660352784569
    y: 19.9539635592088
    z: 29.9765180929507
---
header:
  frame_id: tomsa_1
  seq: 53
  stamp:
    nsecs: 250000000
    secs: 106
pose:
  orientation:
    w: 1.0
    x: 0.0
    y: 0.0
    z: 0.0
  position:
    x: 42.9745731473859
    y: 19.9602392982114
    z: 29.9513070667363
---
header:
  frame_id: tomsa_1
  seq: 54
  stamp:
    nsecs: 500000000
    secs: 108
pose:
  orientation:
    w: 1.0
    x: 0.0
    y: 0.0
    z: 0.0
  position:
    x: 43.9545749099603
    y: 19.9601103603164
    z: 29.9650944675859
---
header:
  frame_id: tomsa_1
  seq: 55
  stamp:
    nsecs: 750000000
    secs: 110
pose:
  orientation:
    w: 1.0
    x: 0.0
    y: 0.0
    z: 0.0
  position:
    x: 44.9614201948554
    y: 19.9684202521739
    z: 29.9689265878973
---
header:
  frame_id: tomsa_1
  seq: 56
  stamp:
    nsecs: 0
    secs: 112
pose:
  orientation:
    w: 1.0
    x: 0.0
    y: 0.0
    z: 0.0
  position:
    x: 45.950434597703
    y: 19.9808018185678
    z: 29.9735551069745
---
header:
  frame_id: tomsa_1
  seq: 57
  stamp:
    nsecs: 250000000
    secs: 114
pose:
  orientation:
    w: 1.0
    x: 0.0
    y: 0.0
    z: 0.0
  position:
    x: 46.9647751948756
    y: 19.9984131060436
    z: 29.9647642141209
---
header:
  frame_id: tomsa_1
  seq: 58
  stamp:
    nsecs: 500000000
    secs: 116
pose:
  orientation:
    w: 1.0
    x: 0.0
    y: 0.0
    z: 0.0
  position:
    x: 47.9626556353325
    y: 19.9765433746313
    z: 29.9562258845171
---
header:
  frame_id: tomsa_1
  seq: 59
  stamp:
    nsecs: 750000000
    secs: 118
pose:
  orientation:
    w: 1.0
    x: 0.0
    y: 0.0
    z: 0.0
  position:
    x: 48.9986788944791
    y: 19.9657263183231
    z: 29.9968615992609
---
header:
  frame_id: tomsa_1
  seq: 60
  stamp:
    nsecs: 0
    secs: 120
pose:
  orientation:
    w: 1.0
    x: 0.0
    y: 0.0
    z: 0.0
  position:
    x: 49.9881314765831
    y: 19.976255864677
    z: 29.9714285186859
---
header:
  frame_id: tomsa_1
  seq: 61
  stamp:
    nsecs: 250000000
    secs: 122
pose:
  orientation:
    w: 1.0
    x: 0.0
    y: 0.0
    z: 0.0
  position:
    x: 50.9648861487622
    y: 19.9775330783893
    z: 29.9952758129323
---
header:
  frame_id: tomsa_1
  seq: 62
  stamp:
    nsecs: 500000000
    secs: 124
pose:
  orientation:
    w: 1.0
    x: 0.0
    y: 0.0
    z: 0.0
  position:
    x: 51.9547939175758
    y: 19.9712116695134
    z: 29.9597584563642
---
header:
  frame_id: tomsa_1
  seq: 63
  stamp:
    nsecs: 750000000
    secs: 126
pose:
  orientation:
    w: 1.0
    x: 0.0
    y: 0.0
    z: 0.0
  position:
    x: 52.9729961526957
    y: 19.983411123377
    z: 29.9965872234307
---
header:
  frame_id: tomsa_1
  seq: 64
  stamp:
    nsecs: 0
    secs: 128
pose:
  orientation:
    w: 1.0
    x: 0.0
    y: 0.0
    z: 0.0
  position:
    x: 53.9728058898805
    y: 19.9642962985832
    z: 29.969345941547
---
header:
  frame_id: tomsa_1
  seq: 65
  stamp:
    nsecs: 250000000
    secs: 130
pose:
  orientation:
    w: 1.0
    x: 0.0
    y: 0.0
    z: 0.0
  position:
    x: 54.9784234013991
    y: 19.9926362139899
    z: 29.9856013915587
---
header:
  frame_id: tomsa_1
  seq: 66
  stamp:
    nsecs: 500000000
    secs: 132
pose:
  orientation:
    w: 1.0
    x: 0.0
    y: 0.0
    z: 0.0
  position:
    x: 55.9574116852605
    y: 19.9910528225526
    z: 29.9785619710049
---
header:
  frame_id: tomsa_1
  seq: 67
  stamp:
    nsecs: 750000000
    secs: 134
pose:
  orientation:
    w: 1.0
    x: 0.0
    y: 0.0
    z: 0.0
  position:
    x: 56.9999945306768
    y: 19.9523502654581
    z: 29.9615136346524
---
header:
  frame_id: tomsa_1
  seq: 68
  stamp:
    nsecs: 0
    secs: 136
pose:
  orientation:
    w: 1.0
    x: 0.0
    y: 0.0
    z: 0.0
  position:
    x: 57.9534657508725
    y: 19.9622703685764
    z: 29.9927080378954
---
header:
  frame_id: tomsa_1
  seq: 69
  stamp:
    nsecs: 250000000
    secs: 138
pose:
  orientation:
    w: 1.0
    x: 0.0
    y: 0.0
    z: 0.0
  position:
    x: 58.9792258394261
    y: 19.9809529218966
    z: 29.976032995662
---
header:
  frame_id: tomsa_1
  seq: 70
  stamp:
    nsecs: 500000000
    secs: 140
pose:
  orientation:
    w: 1.0
    x: 0.0
    y: 0.0
    z: 0.0
  position:
    x: 59.9724015678082
    y: 19.960119625916
    z: 29.9924922503877
---
header:
  frame_id: tomsa_1
  seq: 71
  stamp:
    nsecs: 750000000
    secs: 142
pose:
  orientation:
    w: 1.0
    x: 0.0
    y: 0.0
    z: 0.0
  position:
    x: 60.9718794310948
    y: 19.9564792265116
    z: 29.9939385476959
---
header:
  frame_id: tomsa_1
  seq: 72
  stamp:
    nsecs: 0
    secs: 144
pose:
  orientation:
    w: 1.0
    x: 0.0
    y: 0.0
    z: 0.0
  position:
    x: 61.9616929196703
    y: 19.9552660300993
    z: 29.9605670153449
---
header:
  frame_id: tomsa_1
  seq: 73
  stamp:
    nsecs: 250000000
    secs: 146
pose:
  orientation:
    w: 1.0
    x: 0.0
    y: 0.0
    z: 0.0
  position:
    x: 62.9992149451917
    y: 19.9656281095928
    z: 29.979741284647
---
header:
  frame_id: tomsa_1
  seq: 74
  stamp:
    nsecs: 500000000
    secs: 148
pose:
  orientation:
    w: 1.0
    x: 0.0
    y: 0.0
    z: 0.0
  position:
    x: 63.9809496251964
    y: 19.9636609246792
    z: 29.9836014795594
---
header:
  frame_id: tomsa_1
  seq: 75
  stamp:
    nsecs: 750000000
    secs: 150
pose:
  orientation:
    w: 1.0
    x: 0.0
    y: 0.0
    z: 0.0
  position:
    x: 64.9949016565707
    y: 19.9871107505594
    z: 29.9666499611757
---
header:
  frame_id: tomsa_1
  seq: 76
  stamp:
    nsecs: 0
    secs: 152
pose:
  orientation:
    w: 1.0
    x: 0.0
    y: 0.0
    z: 0.0
  position:
    x: 65.9566540465072
    y: 19.9959232885213
    z: 29.9967655171852
---
header:
  frame_id: tomsa_1
  seq: 77
  stamp:
    nsecs: 250000000
    secs: 154
pose:
  orientation:
    w: 1.0
    x: 0.0
    y: 0.0
    z: 0.0
  position:
    x: 66.9506399946953
    y: 19.996931826604
    z: 29.9749150382231
---
header:
  frame_id: tomsa_1
  seq: 78
  stamp:
    nsecs: 500000000
    secs: 156
pose:
  orientation:
    w: 1.0
    x: 0.0
    y: 0.0
    z: 0.0
  position:
    x: 67.9815033898
    y: 19.9845967489445
    z: 29.9844300842195
---
header:
  frame_id: tomsa_1
  seq: 79
  stamp:
    nsecs: 750000000
    secs: 158
pose:
  orientation:
    w: 1.0
    x: 0.0
    y: 0.0
    z: 0.0
  position:
    x: 68.9508652988152
    y: 19.9619336939394
    z: 29.9572124346175
---
header:
  frame_id: tomsa_1
  seq: 80
  stamp:
    nsecs: 0
    secs: 160
pose:
  orientation:
    w: 0.0
    x: 0.0
    y: 0.0
    z: 1.0
  position:
    x: 69.954027975438
    y: 19.9659949291876
    z: 29.9590562594719
---
header:
  frame_id: tomsa_1
  seq: 81
  stamp:
    nsecs: 250000000
    secs: 162
pose:
  orientation:
    w: 0.0
    x: 0.0
    y: 0.0
    z: 1.0
  position:
    x: 69.9873246217617
    y: 20.9670961083259
    z: 29.9840577531198
---
header:
  frame_id: tomsa_1
  seq: 82
  stamp:
    nsecs: 500000000
    secs: 164
pose:
  orientation:
    w: 0.0
    x: 0.0
    y: 0.0
    z: 1.0
  position:
    x: 69.9734844265633
    y: 21.9893366787363
    z: 29.9647946674903
---
header:
  frame_id: tomsa_1
  seq: 83
  stamp:
    nsecs: 750000000
    secs: 166
pose:
  orientation:
    w: 0.0
    x: 0.0
    y: 0.0
    z: 1.0
  position:
    x: 69.9991968324517
    y: 22.9830440828347
    z: 29.9779201748726
---
header:
  frame_id: tomsa_1
  seq: 84
  stamp:
    nsecs: 0
    secs: 168
pose:
  orientation:
    w: 0.0
    x: 0.0
    y: 0.0
    z: 1.0
  position:
    x: 69.9828597725727
    y: 23.9826295232438
    z: 29.9550951872044
---
header:
  frame_id: tomsa_1
  seq: 85
  stamp:
    nsecs: 250000000
    secs: 170
pose:
  orientation:
    w: 0.0
    x: 0.0
    y: 0.0
    z: -1.0
  position:
    x: 69.9563660869469
    y: 24.991804414802
    z: 29.9554010581536
---
header:
  frame_id: tomsa_1
  seq: 86
  stamp:
    nsecs: 500000000
    secs: 172
pose:
  orientation:
    w: 0.0
    x: 0.0
    y: 0.0
    z: -1.0
  position:
    x: 68.9580589696842
    y: 24.9744908484301
    z: 29.961883002047
---
header:
  frame_id: tomsa_1
  seq: 87
  stamp:
    nsecs: 750000000
    secs: 174
pose:
  orientation:
    w: 0.0
    x: 0.0
    y: 0.0
    z: -1.0
  position:
    x: 67.9634369401813
    y: 24.9993676511967
    z: 29.9828879609065
---
header:
  frame_id: tomsa_1
  seq: 88
  stamp:
    nsecs: 0
    secs: 176
pose:
  orientation:
    w: 0.0
    x: 0.0
    y: 0.0
    z: -1.0
  position:
    x: 66.9524314103108
    y: 24.9605012224423
    z: 29.9681929879299
---
header:
  frame_id: tomsa_1
  seq: 89
  stamp:
    nsecs: 250000000
    secs: 178
pose:
  orientation:
    w: 0.0
    x: 0.0
    y: 0.0
    z: -1.0
  position:
    x: 65.9675433829217
    y: 24.9524537768339
    z: 29.9858437170634
---
header:
  frame_id: tomsa_1
  seq: 90
  stamp:
    nsecs: 500000000
    secs: 180
pose:
  orientation:
    w: 0.0
    x: 0.0
    y: 0.0
    z: -1.0
  position:
    x: 64.9969053818635
    y: 24.9918954003815
    z: 29.960518373737
---
header:
  frame_id: tomsa_1
  seq: 91
  stamp:
    nsecs: 750000000
    secs: 182
pose:
  orientation:
    w: 0.0
    x: 0.0
    y: 0.0
    z: -1.0
  position:
    x: 63.9840124515655
    y: 24.9711442612068
    z: 29.9682971086102
---
header:
  frame_id: tomsa_1
  seq: 92
  stamp:
    nsecs: 0
    secs: 184
pose:
  orientation:
    w: 0.0
    x: 0.0
    y: 0.0
    z: -1.0
  position:
    x: 62.9939043901253
    y: 24.9865150003776
    z: 29.9969715032098
---
header:
  frame_id: tomsa_1
  seq: 93
  stamp:
    nsecs: 250000000
    secs: 186
pose:
  orientation:
    w: 0.0
    x: 0.0
    y: 0.0
    z: -1.0
  position:
    x: 61.9902029614153
    y: 24.9944178265218
    z: 29.9504144289267
---
header:
  frame_id: tomsa_1
  seq: 94
  stamp:
    nsecs: 500000000
    secs: 188
pose:
  orientation:
    w: 0.0
    x: 0.0
    y: 0.0
    z: -1.0
  position:
    x: 60.9926311684436
    y: 24.9681864890865
    z: 29.9996597487371
---
header:
  frame_id: tomsa_1
  seq: 95
  stamp:
    nsecs: 750000000
    secs: 190
pose:
  orientation:
    w: 0.0
    x: 0.0
    y: 0.0
    z: -1.0
  position:
    x: 59.9982627186563
    y: 24.985388160909
    z: 29.9592191700875
---
header:
  frame_id: tomsa_1
  seq: 96
  stamp:
    nsecs: 0
    secs: 192
pose:
  orientation:
    w: 0.0
    x: 0.0
    y: 0.0
    z: -1.0
  position:
    x: 58.9977939165192
    y: 24.9568319664222
    z: 29.9983473996599
---
header:
  frame_id: tomsa_1
  seq: 97
  stamp:
    nsecs: 250000000
    secs: 194
pose:
  orientation:
    w: 0.0
    x: 0.0
    y: 0.0
    z: -1.0
  position:
    x: 57.9875843963122
    y: 24.9599350844786
    z: 29.9900318288157
---
header:
  frame_id: tomsa_1
  seq: 98
  stamp:
    nsecs: 500000000
    secs: 196
pose:
  orientation:
    w: 0.0
    x: 0.0
    y: 0.0
    z: -1.0
  position:
    x: 56.9713804301622
    y: 24.9934599904946
    z: 29.9511660017781
---
header:
  frame_id: tomsa_1
  seq: 99
  stamp:
    nsecs: 750000000
    secs: 198
pose:
  orientation:
    w: 0.0
    x: 0.0
    y: 0.0
    z: -1.0
  position:
    x: 55.9706966006531
    y: 24.9903738372801
    z: 29.9847218385028
---
header:
  frame_id: tomsa_1
  seq: 100
  stamp:
    nsecs: 0
    secs: 200
pose:
  orientation:
    w: 0.0
    x: 0.0
    y: 0.0
    z: -1.0
  position:
    x: 54.9979012370651
    y: 24.9533746864849
    z: 29.9915153106639
---
header:
  frame_id: tomsa_1
  seq: 101
  stamp:
    nsecs: 250000000
    secs: 202
pose:
  orientation:
    w: 0.0
    x: 0.0
    y: 0.0
    z: -1.0
  position:
    x: 53.9587388597472
    y: 24.967526031215
    z: 29.9847195719676
---
header:
  frame_id: tomsa_1
  seq: 102
  stamp:
    nsecs: 500000000
    secs: 204
pose:
  orientation:
    w: 0.0
    x: 0.0
    y: 0.0
    z: -1.0
  position:
    x: 52.9828675344866
    y: 24.9892929415585
    z: 29.9585796553958
---
header:
  frame_id: tomsa_1
  seq: 103
  stamp:
    nsecs: 750000000
    secs: 206
pose:
  orientation:
    w: 0.0
    x: 0.0
    y: 0.0
    z: -1.0
  position:
    x: 51.9692797304226
    y: 24.9703674772874
    z: 29.9711543012456
---
header:
  frame_id: tomsa_1
  seq: 104
  stamp:
    nsecs: 0
    secs: 208
pose:
  orientation:
    w: 0.0
    x: 0.0
    y: 0.0
    z: -1.0
  position:
    x: 50.99122607985
    y: 24.9500898140067
    z: 29.9634350924146
---
header:
  frame_id: tomsa_1
  seq: 105
  stamp:
    nsecs: 250000000
    secs: 210
pose:
  orientation:
    w: 0.0
    x: 0.0
    y: 0.0
    z: -1.0
  position:
    x: 49.9807397151306
    y: 24.9895382815022
    z: 29.972917567949
---
header:
  frame_id: tomsa_1
  seq: 106
  stamp:
    nsecs: 500000000
    secs: 212
pose:
  orientation:
    w: 0.0
    x: 0.0
    y: 0.0
    z: -1.0
  position:
    x: 48.9572107499479
    y: 24.9663720151691
    z: 29.9766995180431
---
header:
  frame_id: tomsa_1
  seq: 107
  stamp:
    nsecs: 750000000
    secs: 214
pose:
  orientation:
    w: 0.0
    x: 0.0
    y: 0.0
    z: -1.0
  position:
    x: 47.9886256039806
    y: 24.9799815786239
    z: 29.9995795276521
---
header:
  frame_id: tomsa_1
  seq: 108
  stamp:
    nsecs: 0
    secs: 216
pose:
  orientation:
    w: 0.0
    x: 0.0
    y: 0.0
    z: -1.0
  position:
    x: 46.9855868205059
    y: 24.9614249707008
    z: 29.9759549698641
---
header:
  frame_id: tomsa_1
  seq: 109
  stamp:
    nsecs: 250000000
    secs: 218
pose:
  orientation:
    w: 0.0
    x: 0.0
    y: 0.0
    z: -1.0
  position:
    x: 45.9535963721276
    y: 24.9886288185686
    z: 29.9743191966291
---
header:
  frame_id: tomsa_1
  seq: 110
  stamp:
    nsecs: 500000000
    secs: 220
pose:
  orientation:
    w: 0.0
    x: 0.0
    y: 0.0
    z: -1.0
  position:
    x: 44.9825573471902
    y: 24.9582993603941
    z: 29.9760999579016
---
header:
  frame_id: tomsa_1
  seq: 111
  stamp:
    nsecs: 750000000
    secs: 222
pose:
  orientation:
    w: 0.0
    x: 0.0
    y: 0.0
    z: -1.0
  position:
    x: 43.9835626933521
    y: 24.9992899901899
    z: 29.9693394405406
---
header:
  frame_id: tomsa_1
  seq: 112
  stamp:
    nsecs: 0
    secs: 224
pose:
  orientation:
    w: 0.0
    x: 0.0
    y: 0.0
    z: -1.0
  position:
    x: 42.9855499876947
    y: 24.954425710471
    z: 29.9595429648527
---
header:
  frame_id: tomsa_1
  seq: 113
  stamp:
    nsecs: 250000000
    secs: 226
pose:
  orientation:
    w: 0.0
    x: 0.0
    y: 0.0
    z: -1.0
  position:
    x: 41.9864639960735
    y: 24.9655950135659
    z: 29.972745195171
---
header:
  frame_id: tomsa_1
  seq: 114
  stamp:
    nsecs: 500000000
    secs: 228
pose:
  orientation:
    w: 0.0
    x: 0.0
    y: 0.0
    z: -1.0
  position:
    x: 40.9556546865923
    y: 24.9649654710723
    z: 29.9523548977797
---
header:
  frame_id: tomsa_1
  seq: 115
  stamp:
    nsecs: 750000000
    secs: 230
pose:
  orientation:
    w: 0.0
    x: 0.0
    y: 0.0
    z: -1.0
  position:
    x: 39.9954576666479
    y: 24.9527728721834
    z: 29.9893725979742
---
header:
  frame_id: tomsa_1
  seq: 116
  stamp:
    nsecs: 0
    secs: 232
pose:
  orientation:
    w: 0.0
    x: 0.0
    y: 0.0
    z: -1.0
  position:
    x: 38.9777449475378
    y: 24.9802706888109
    z: 29.9646031625197
---
header:
  frame_id: tomsa_1
  seq: 117
  stamp:
    nsecs: 250000000
    secs: 234
pose:
  orientation:
    w: 0.0
    x: 0.0
    y: 0.0
    z: -1.0
  position:
    x: 37.9986603763865
    y: 24.9638868331986
    z: 29.9784685671999
---
header:
  frame_id: tomsa_1
  seq: 118
  stamp:
    nsecs: 500000000
    secs: 236
pose:
  orientation:
    w: 0.0
    x: 0.0
    y: 0.0
    z: -1.0
  position:
    x: 36.9942642238888
    y: 24.9581373040384
    z: 29.9683578730105
---
header:
  frame_id: tomsa_1
  seq: 119
  stamp:
    nsecs: 750000000
    secs: 238
pose:
  orientation:
    w: 0.0
    x: 0.0
    y: 0.0
    z: -1.0
  position:
    x: 35.9937840415857
    y: 24.9642587137238
    z: 29.9915233149207
---
header:
  frame_id: tomsa_1
  seq: 120
  stamp:
    nsecs: 0
    secs: 240
pose:
  orientation:
    w: 0.0
    x: 0.0
    y: 0.0
    z: -1.0
  position:
    x: 34.9789532890595
    y: 24.9843983835573
    z: 29.9982001332333
---
header:
  frame_id: tomsa_1
  seq: 121
  stamp:
    nsecs: 250000000
    secs: 242
pose:
  orientation:
    w: 0.0
    x: 0.0
    y: 0.0
    z: -1.0
  position:
    x: 33.9899134869043
    y: 24.9519205109354
    z: 29.9589240637135
---
header:
  frame_id: tomsa_1
  seq: 122
  stamp:
    nsecs: 500000000
    secs: 244
pose:
  orientation:
    w: 0.0
    x: 0.0
    y: 0.0
    z: -1.0
  position:
    x: 32.9552741978679
    y: 24.9762040657058
    z: 29.9534434912145
---
header:
  frame_id: tomsa_1
  seq: 123
  stamp:
    nsecs: 750000000
    secs: 246
pose:
  orientation:
    w: 0.0
    x: 0.0
    y: 0.0
    z: -1.0
  position:
    x: 31.965503738314
    y: 24.9567080665509
    z: 29.972070932466
---
header:
  frame_id: tomsa_1
  seq: 124
  stamp:
    nsecs: 0
    secs: 248
pose:
  orientation:
    w: 0.0
    x: 0.0
    y: 0.0
    z: -1.0
  position:
    x: 30.9873520502471
    y: 24.9746559034319
    z: 29.966756119666
---
header:
  frame_id: tomsa_1
  seq: 125
  stamp:
    nsecs: 250000000
    secs: 250
pose:
  orientation:
    w: 0.0
    x: 0.0
    y: 0.0
    z: -1.0
  position:
    x: 29.9749118843068
    y: 24.9898744626634
    z: 29.9816668281821
---
header:
  frame_id: tomsa_1
  seq: 126
  stamp:
    nsecs: 500000000
    secs: 252
pose:
  orientation:
    w: 0.0
    x: 0.0
    y: 0.0
    z: -1.0
  position:
    x: 28.9582879649636
    y: 24.9682525370746
    z: 29.9538215756517
---
header:
  frame_id: tomsa_1
  seq: 127
  stamp:
    nsecs: 750000000
    secs: 254
pose:
  orientation:
    w: 0.0
    x: 0.0
    y: 0.0
    z: -1.0
  position:
    x: 27.9994646409265
    y: 24.9767558343689
    z: 29.9572132911066
---
header:
  frame_id: tomsa_1
  seq: 128
  stamp:
    nsecs: 0
    secs: 256
pose:
  orientation:
    w: 0.0
    x: 0.0
    y: 0.0
    z: -1.0
  position:
    x: 26.9558855419711
    y: 24.9966471413846
    z: 29.9723079471561
---
header:
  frame_id: tomsa_1
  seq: 129
  stamp:
    nsecs: 250000000
    secs: 258
pose:
  orientation:
    w: 0.0
    x: 0.0
    y: 0.0
    z: -1.0
  position:
    x: 25.9535287501434
    y: 24.9819670291942
    z: 29.9540848572082
---
header:
  frame_id: tomsa_1
  seq: 130
  stamp:
    nsecs: 500000000
    secs: 260
pose:
  orientation:
    w: 0.0
    x: 0.0
    y: 0.0
    z: -1.0
  position:
    x: 24.9609559326455
    y: 24.9901505330991
    z: 29.9803410292355
---
header:
  frame_id: tomsa_1
  seq: 131
  stamp:
    nsecs: 750000000
    secs: 262
pose:
  orientation:
    w: 0.0
    x: 0.0
    y: 0.0
    z: -1.0
  position:
    x: 23.9750828708946
    y: 24.955271518667
    z: 29.9565417034472
---
header:
  frame_id: tomsa_1
  seq: 132
  stamp:
    nsecs: 0
    secs: 264
pose:
  orientation:
    w: 0.0
    x: 0.0
    y: 0.0
    z: -1.0
  position:
    x: 22.9625296358616
    y: 24.9523676769978
    z: 29.9616281996828
---
header:
  frame_id: tomsa_1
  seq: 133
  stamp:
    nsecs: 250000000
    secs: 266
pose:
  orientation:
    w: 0.0
    x: 0.0
    y: 0.0
    z: -1.0
  position:
    x: 21.973404064256
    y: 24.998455893944
    z: 29.976094867468
---
header:
  frame_id: tomsa_1
  seq: 134
  stamp:
    nsecs: 500000000
    secs: 268
pose:
  orientation:
    w: 0.0
    x: 0.0
    y: 0.0
    z: -1.0
  position:
    x: 20.9654183916638
    y: 24.9708060212388
    z: 29.9965208838845
---
header:
  frame_id: tomsa_1
  seq: 135
  stamp:
    nsecs: 750000000
    secs: 270
pose:
  orientation:
    w: 0.0
    x: 0.0
    y: 0.0
    z: -1.0
  position:
    x: 19.9821739663564
    y: 24.9811045322196
    z: 29.9965643988339
---
header:
  frame_id: tomsa_1
  seq: 136
  stamp:
    nsecs: 0
    secs: 272
pose:
  orientation:
    w: 0.0
    x: 0.0
    y: 0.0
    z: 1.0
  position:
    x: 19.9593175577658
    y: 25.9864215494041
    z: 29.9799994231218
---
header:
  frame_id: tomsa_1
  seq: 137
  stamp:
    nsecs: 250000000
    secs: 274
pose:
  orientation:
    w: 0.0
    x: 0.0
    y: 0.0
    z: 1.0
  position:
    x: 19.9555278504939
    y: 26.9940889048886
    z: 29.9880758166909
---
header:
  frame_id: tomsa_1
  seq: 138
  stamp:
    nsecs: 500000000
    secs: 276
pose:
  orientation:
    w: 0.0
    x: 0.0
    y: 0.0
    z: 1.0
  position:
    x: 19.9663948327457
    y: 27.9816121685766
    z: 29.9870279792381
---
header:
  frame_id: tomsa_1
  seq: 139
  stamp:
    nsecs: 750000000
    secs: 278
pose:
  orientation:
    w: 0.0
    x: 0.0
    y: 0.0
    z: 1.0
  position:
    x: 19.9593753228037
    y: 28.991744681484
    z: 29.9613740907038
---
header:
  frame_id: tomsa_1
  seq: 140
  stamp:
    nsecs: 0
    secs: 280
pose:
  orientation:
    w: 0.0
    x: 0.0
    y: 0.0
    z: 1.0
  position:
    x: 19.9578349760929
    y: 29.9647153277464
    z: 29.9784682983002
---
header:
  frame_id: tomsa_1
  seq: 141
  stamp:
    nsecs: 250000000
    secs: 282
pose:
  orientation:
    w: 1.0
    x: 0.0
    y: 0.0
    z: 0.0
  position:
    x: 20.9652488474734
    y: 29.9537330982755
    z: 29.9831148331823
---
header:
  frame_id: tomsa_1
  seq: 142
  stamp:
    nsecs: 500000000
    secs: 284
pose:
  orientation:
    w: 1.0
    x: 0.0
    y: 0.0
    z: 0.0
  position:
    x: 21.961185521921
    y: 29.982209049412
    z: 29.988455774012
---
header:
  frame_id: tomsa_1
  seq: 143
  stamp:
    nsecs: 750000000
    secs: 286
pose:
  orientation:
    w: 1.0
    x: 0.0
    y: 0.0
    z: 0.0
  position:
    x: 22.9882962149086
    y: 29.969189863848
    z: 29.9885947608622
---
header:
  frame_id: tomsa_1
  seq: 144
  stamp:
    nsecs: 0
    secs: 288
pose:
  orientation:
    w: 1.0
    x: 0.0
    y: 0.0
    z: 0.0
  position:
    x: 23.9896179910199
    y: 29.9916710383014
    z: 29.9706575069324
---
header:
  frame_id: tomsa_1
  seq: 145
  stamp:
    nsecs: 250000000
    secs: 290
pose:
  orientation:
    w: 1.0
    x: 0.0
    y: 0.0
    z: 0.0
  position:
    x: 24.9712168744437
    y: 29.9597906321321
    z: 29.9931300108213
---
header:
  frame_id: tomsa_1
  seq: 146
  stamp:
    nsecs: 500000000
    secs: 292
pose:
  orientation:
    w: 1.0
    x: 0.0
    y: 0.0
    z: 0.0
  position:
    x: 25.9704077335148
    y: 29.9705668064024
    z: 29.9799577443352
---
header:
  frame_id: tomsa_1
  seq: 147
  stamp:
    nsecs: 750000000
    secs: 294
pose:
  orientation:
    w: 1.0
    x: 0.0
    y: 0.0
    z: 0.0
  position:
    x: 26.9624277413523
    y: 29.9809714445938
    z: 29.9949946856852
---
header:
  frame_id: tomsa_1
  seq: 148
  stamp:
    nsecs: 0
    secs: 296
pose:
  orientation:
    w: 1.0
    x: 0.0
    y: 0.0
    z: 0.0
  position:
    x: 27.9562935778253
    y: 29.991406532544
    z: 29.9742581252352
---
header:
  frame_id: tomsa_1
  seq: 149
  stamp:
    nsecs: 250000000
    secs: 298
pose:
  orientation:
    w: 1.0
    x: 0.0
    y: 0.0
    z: 0.0
  position:
    x: 28.9703204792585
    y: 29.9855256163267
    z: 29.9964978756833
---
header:
  frame_id: tomsa_1
  seq: 150
  stamp:
    nsecs: 500000000
    secs: 300
pose:
  orientation:
    w: 1.0
    x: 0.0
    y: 0.0
    z: 0.0
  position:
    x: 29.9883108917203
    y: 29.9582601394401
    z: 29.9973681810237
---
header:
  frame_id: tomsa_1
  seq: 151
  stamp:
    nsecs: 750000000
    secs: 302
pose:
  orientation:
    w: 1.0
    x: 0.0
    y: 0.0
    z: 0.0
  position:
    x: 30.9671323531628
    y: 29.9868583541847
    z: 29.9692782118875
---
header:
  frame_id: tomsa_1
  seq: 152
  stamp:
    nsecs: 0
    secs: 304
pose:
  orientation:
    w: 1.0
    x: 0.0
    y: 0.0
    z: 0.0
  position:
    x: 31.9566681903387
    y: 29.9667217037554
    z: 29.9618700556043
---
header:
  frame_id: tomsa_1
  seq: 153
  stamp:
    nsecs: 250000000
    secs: 306
pose:
  orientation:
    w: 1.0
    x: 0.0
    y: 0.0
    z: 0.0
  position:
    x: 32.9860456163868
    y: 29.9874479717464
    z: 29.9612221453735
---
header:
  frame_id: tomsa_1
  seq: 154
  stamp:
    nsecs: 500000000
    secs: 308
pose:
  orientation:
    w: 1.0
    x: 0.0
    y: 0.0
    z: 0.0
  position:
    x: 33.9920844990558
    y: 29.9776142683455
    z: 29.972370334654
---
header:
  frame_id: tomsa_1
  seq: 155
  stamp:
    nsecs: 750000000
    secs: 310
pose:
  orientation:
    w: 1.0
    x: 0.0
    y: 0.0
    z: 0.0
  position:
    x: 34.990139501574
    y: 29.9886332855001
    z: 29.9795188790027
---
header:
  frame_id: tomsa_1
  seq: 156
  stamp:
    nsecs: 0
    secs: 312
pose:
  orientation:
    w: 1.0
    x: 0.0
    y: 0.0
    z: 0.0
  position:
    x: 35.9959570881887
    y: 29.9955679631318
    z: 29.9636547419286
---
header:
  frame_id: tomsa_1
  seq: 157
  stamp:
    nsecs: 250000000
    secs: 314
pose:
  orientation:
    w: 1.0
    x: 0.0
    y: 0.0
    z: 0.0
  position:
    x: 36.977095919087
    y: 29.9814913929612
    z: 29.979039883005
---
header:
  frame_id: tomsa_1
  seq: 158
  stamp:
    nsecs: 500000000
    secs: 316
pose:
  orientation:
    w: 1.0
    x: 0.0
    y: 0.0
    z: 0.0
  position:
    x: 37.9979866648544
    y: 29.961434500817
    z: 29.9759586636933
---
header:
  frame_id: tomsa_1
  seq: 159
  stamp:
    nsecs: 750000000
    secs: 318
pose:
  orientation:
    w: 1.0
    x: 0.0
    y: 0.0
    z: 0.0
  position:
    x: 38.988628796311
    y: 29.991608515082
    z: 29.9696468603937
---
header:
  frame_id: tomsa_1
  seq: 160
  stamp:
    nsecs: 0
    secs: 320
pose:
  orientation:
    w: 1.0
    x: 0.0
    y: 0.0
    z: 0.0
  position:
    x: 39.9601070745218
    y: 29.9868063337797
    z: 29.9573383482
---
header:
  frame_id: tomsa_1
  seq: 161
  stamp:
    nsecs: 250000000
    secs: 322
pose:
  orientation:
    w: 1.0
    x: 0.0
    y: 0.0
    z: 0.0
  position:
    x: 40.9646893748496
    y: 29.9538651380137
    z: 29.9715616659728
---
header:
  frame_id: tomsa_1
  seq: 162
  stamp:
    nsecs: 500000000
    secs: 324
pose:
  orientation:
    w: 1.0
    x: 0.0
    y: 0.0
    z: 0.0
  position:
    x: 41.9665893399985
    y: 29.9522453995576
    z: 29.9803301431402
---
header:
  frame_id: tomsa_1
  seq: 163
  stamp:
    nsecs: 750000000
    secs: 326
pose:
  orientation:
    w: 1.0
    x: 0.0
    y: 0.0
    z: 0.0
  position:
    x: 42.9648247235703
    y: 29.9840593772034
    z: 29.962892304574
---
header:
  frame_id: tomsa_1
  seq: 164
  stamp:
    nsecs: 0
    secs: 328
pose:
  orientation:
    w: 1.0
    x: 0.0
    y: 0.0
    z: 0.0
  position:
    x: 43.9641447471126
    y: 29.9830080151076
    z: 29.9857757517785
---
header:
  frame_id: tomsa_1
  seq: 165
  stamp:
    nsecs: 250000000
    secs: 330
pose:
  orientation:
    w: 1.0
    x: 0.0
    y: 0.0
    z: 0.0
  position:
    x: 44.9910739941314
    y: 29.9672831357426
    z: 29.9502033051867
---
header:
  frame_id: tomsa_1
  seq: 166
  stamp:
    nsecs: 500000000
    secs: 332
pose:
  orientation:
    w: 1.0
    x: 0.0
    y: 0.0
    z: 0.0
  position:
    x: 45.979124048055
    y: 29.9809097638999
    z: 29.9749071274049
---
header:
  frame_id: tomsa_1
  seq: 167
  stamp:
    nsecs: 750000000
    secs: 334
pose:
  orientation:
    w: 1.0
    x: 0.0
    y: 0.0
    z: 0.0
  position:
    x: 46.9699561151529
    y: 29.9951061648701
    z: 29.9741406313896
---
header:
  frame_id: tomsa_1
  seq: 168
  stamp:
    nsecs: 0
    secs: 336
pose:
  orientation:
    w: 1.0
    x: 0.0
    y: 0.0
    z: 0.0
  position:
    x: 47.9755770964342
    y: 29.999770522382
    z: 29.9739575763682
---
header:
  frame_id: tomsa_1
  seq: 169
  stamp:
    nsecs: 250000000
    secs: 338
pose:
  orientation:
    w: 1.0
    x: 0.0
    y: 0.0
    z: 0.0
  position:
    x: 48.9959674900496
    y: 29.9587604305055
    z: 29.9856659418599
---
header:
  frame_id: tomsa_1
  seq: 170
  stamp:
    nsecs: 500000000
    secs: 340
pose:
  orientation:
    w: 1.0
    x: 0.0
    y: 0.0
    z: 0.0
  position:
    x: 49.9828930758413
    y: 29.9624160012295
    z: 29.96886915355
---
header:
  frame_id: tomsa_1
  seq: 171
  stamp:
    nsecs: 750000000
    secs: 342
pose:
  orientation:
    w: 1.0
    x: 0.0
    y: 0.0
    z: 0.0
  position:
    x: 50.9742754090803
    y: 29.9702373530862
    z: 29.9770949588655
---
header:
  frame_id: tomsa_1
  seq: 172
  stamp:
    nsecs: 0
    secs: 344
pose:
  orientation:
    w: 1.0
    x: 0.0
    y: 0.0
    z: 0.0
  position:
    x: 51.9661154504904
    y: 29.9629669490922
    z: 29.9730735359703
---
header:
  frame_id: tomsa_1
  seq: 173
  stamp:
    nsecs: 250000000
    secs: 346
pose:
  orientation:
    w: 1.0
    x: 0.0
    y: 0.0
    z: 0.0
  position:
    x: 52.9674647391483
    y: 29.9849933998495
    z: 29.9771272759441
---
header:
  frame_id: tomsa_1
  seq: 174
  stamp:
    nsecs: 500000000
    secs: 348
pose:
  orientation:
    w: 1.0
    x: 0.0
    y: 0.0
    z: 0.0
  position:
    x: 53.9949162559479
    y: 29.957525091268
    z: 29.9776719636755
---
header:
  frame_id: tomsa_1
  seq: 175
  stamp:
    nsecs: 750000000
    secs: 350
pose:
  orientation:
    w: 1.0
    x: 0.0
    y: 0.0
    z: 0.0
  position:
    x: 54.9765717400507
    y: 29.9924061927506
    z: 29.9946316376353
---
header:
  frame_id: tomsa_1
  seq: 176
  stamp:
    nsecs: 0
    secs: 352
pose:
  orientation:
    w: 1.0
    x: 0.0
    y: 0.0
    z: 0.0
  position:
    x: 55.9706758898542
    y: 29.9847621509819
    z: 29.9646595742947
---
header:
  frame_id: tomsa_1
  seq: 177
  stamp:
    nsecs: 250000000
    secs: 354
pose:
  orientation:
    w: 1.0
    x: 0.0
    y: 0.0
    z: 0.0
  position:
    x: 56.9997601519644
    y: 29.995597359837
    z: 29.9540888347332
---
header:
  frame_id: tomsa_1
  seq: 178
  stamp:
    nsecs: 500000000
    secs: 356
pose:
  orientation:
    w: 1.0
    x: 0.0
    y: 0.0
    z: 0.0
  position:
    x: 57.969970692472
    y: 29.9936178737503
    z: 29.9889718289472
---
header:
  frame_id: tomsa_1
  seq: 179
  stamp:
    nsecs: 750000000
    secs: 358
pose:
  orientation:
    w: 1.0
    x: 0.0
    y: 0.0
    z: 0.0
  position:
    x: 58.9581984326004
    y: 29.99079332264
    z: 29.9545667163635
---
header:
  frame_id: tomsa_1
  seq: 180
  stamp:
    nsecs: 0
    secs: 360
pose:
  orientation:
    w: 1.0
    x: 0.0
    y: 0.0
    z: 0.0
  position:
    x: 59.9791969938428
    y: 29.9643368091886
    z: 29.9964116080559
---
header:
  frame_id: tomsa_1
  seq: 181
  stamp:
    nsecs: 250000000
    secs: 362
pose:
  orientation:
    w: 1.0
    x: 0.0
    y: 0.0
    z: 0.0
  position:
    x: 60.9749555686907
    y: 29.9602857910162
    z: 29.9647794233474
---
header:
  frame_id: tomsa_1
  seq: 182
  stamp:
    nsecs: 500000000
    secs: 364
pose:
  orientation:
    w: 1.0
    x: 0.0
    y: 0.0
    z: 0.0
  position:
    x: 61.9516150310651
    y: 29.9790695553293
    z: 29.9691524024641
---
header:
  frame_id: tomsa_1
  seq: 183
  stamp:
    nsecs: 750000000
    secs: 366
pose:
  orientation:
    w: 1.0
    x: 0.0
    y: 0.0
    z: 0.0
  position:
    x: 62.9983160896887
    y: 29.9829944258191
    z: 29.9684433891667
---
header:
  frame_id: tomsa_1
  seq: 184
  stamp:
    nsecs: 0
    secs: 368
pose:
  orientation:
    w: 1.0
    x: 0.0
    y: 0.0
    z: 0.0
  position:
    x: 63.955943267012
    y: 29.9847231381384
    z: 29.9855607094231
---
header:
  frame_id: tomsa_1
  seq: 185
  stamp:
    nsecs: 250000000
    secs: 370
pose:
  orientation:
    w: 1.0
    x: 0.0
    y: 0.0
    z: 0.0
  position:
    x: 64.9706105150387
    y: 29.9518886020805
    z: 29.955605321788
---
header:
  frame_id: tomsa_1
  seq: 186
  stamp:
    nsecs: 500000000
    secs: 372
pose:
  orientation:
    w: 1.0
    x: 0.0
    y: 0.0
    z: 0.0
  position:
    x: 65.9891109022418
    y: 29.9769139309749
    z: 29.9978466407508
---
header:
  frame_id: tomsa_1
  seq: 187
  stamp:
    nsecs: 750000000
    secs: 374
pose:
  orientation:
    w: 1.0
    x: 0.0
    y: 0.0
    z: 0.0
  position:
    x: 66.961021120919
    y: 29.9787659896597
    z: 29.9536388135562
---
header:
  frame_id: tomsa_1
  seq: 188
  stamp:
    nsecs: 0
    secs: 376
pose:
  orientation:
    w: 1.0
    x: 0.0
    y: 0.0
    z: 0.0
  position:
    x: 67.9951713587441
    y: 29.9857947787849
    z: 29.9786041625222
---
header:
  frame_id: tomsa_1
  seq: 189
  stamp:
    nsecs: 250000000
    secs: 378
pose:
  orientation:
    w: 1.0
    x: 0.0
    y: 0.0
    z: 0.0
  position:
    x: 68.9715701075949
    y: 29.9500413803354
    z: 29.9862314413453
---
header:
  frame_id: tomsa_1
  seq: 190
  stamp:
    nsecs: 500000000
    secs: 380
pose:
  orientation:
    w: 1.0
    x: 0.0
    y: 0.0
    z: 0.0
  position:
    x: 69.9980691191799
    y: 29.9572429786191
    z: 29.9961028380915
---
header:
  frame_id: tomsa_1
  seq: 191
  stamp:
    nsecs: 750000000
    secs: 382
pose:
  orientation:
    w: 0.0
    x: 0.0
    y: 0.0
    z: 1.0
  position:
    x: 69.9690445706301
    y: 30.9816068933305
    z: 29.9551573421173
---
header:
  frame_id: tomsa_1
  seq: 192
  stamp:
    nsecs: 0
    secs: 384
pose:
  orientation:
    w: 0.0
    x: 0.0
    y: 0.0
    z: 1.0
  position:
    x: 69.9515556750107
    y: 31.990228315008
    z: 29.9819673488975
---
header:
  frame_id: tomsa_1
  seq: 193
  stamp:
    nsecs: 250000000
    secs: 386
pose:
  orientation:
    w: 0.0
    x: 0.0
    y: 0.0
    z: 1.0
  position:
    x: 69.9955513955775
    y: 32.9735081071219
    z: 29.9689762051307
---
header:
  frame_id: tomsa_1
  seq: 194
  stamp:
    nsecs: 500000000
    secs: 388
pose:
  orientation:
    w: 0.0
    x: 0.0
    y: 0.0
    z: 1.0
  position:
    x: 69.9522816988923
    y: 33.9501415671132
    z: 29.990393355446
---
header:
  frame_id: tomsa_1
  seq: 195
  stamp:
    nsecs: 750000000
    secs: 390
pose:
  orientation:
    w: 0.0
    x: 0.0
    y: 0.0
    z: 1.0
  position:
    x: 69.9529520732426
    y: 34.9784290024232
    z: 29.9733678928664
---
header:
  frame_id: tomsa_1
  seq: 196
  stamp:
    nsecs: 0
    secs: 392
pose:
  orientation:
    w: 0.0
    x: 0.0
    y: 0.0
    z: -1.0
  position:
    x: 68.9599830090977
    y: 34.9948570917816
    z: 29.9889820312061
---
header:
  frame_id: tomsa_1
  seq: 197
  stamp:
    nsecs: 250000000
    secs: 394
pose:
  orientation:
    w: 0.0
    x: 0.0
    y: 0.0
    z: -1.0
  position:
    x: 67.98087099866
    y: 34.9968330949683
    z: 29.9983920607216
---
header:
  frame_id: tomsa_1
  seq: 198
  stamp:
    nsecs: 500000000
    secs: 396
pose:
  orientation:
    w: 0.0
    x: 0.0
    y: 0.0
    z: -1.0
  position:
    x: 66.967176833833
    y: 34.9509116034713
    z: 29.9952113397354
---
header:
  frame_id: tomsa_1
  seq: 199
  stamp:
    nsecs: 750000000
    secs: 398
pose:
  orientation:
    w: 0.0
    x: 0.0
    y: 0.0
    z: -1.0
  position:
    x: 65.9535259326158
    y: 34.9766828153578
    z: 29.9605365573742
---
header:
  frame_id: tomsa_1
  seq: 200
  stamp:
    nsecs: 0
    secs: 400
pose:
  orientation:
    w: 0.0
    x: 0.0
    y: 0.0
    z: -1.0
  position:
    x: 64.9853080098821
    y: 34.9604085691304
    z: 29.9917820679582
---
header:
  frame_id: tomsa_1
  seq: 201
  stamp:
    nsecs: 250000000
    secs: 402
pose:
  orientation:
    w: 0.0
    x: 0.0
    y: 0.0
    z: -1.0
  position:
    x: 63.9683524000307
    y: 34.9979892079737
    z: 29.9754620533623
---
header:
  frame_id: tomsa_1
  seq: 202
  stamp:
    nsecs: 500000000
    secs: 404
pose:
  orientation:
    w: 0.0
    x: 0.0
    y: 0.0
    z: -1.0
  position:
    x: 62.9695905935265
    y: 34.9977478952308
    z: 29.9974363983617
---
header:
  frame_id: tomsa_1
  seq: 203
  stamp:
    nsecs: 750000000
    secs: 406
pose:
  orientation:
    w: 0.0
    x: 0.0
    y: 0.0
    z: -1.0
  position:
    x: 61.9928120553915
    y: 34.9832712429312
    z: 29.9616694669682
---
header:
  frame_id: tomsa_1
  seq: 204
  stamp:
    nsecs: 0
    secs: 408
pose:
  orientation:
    w: 0.0
    x: 0.0
    y: 0.0
    z: -1.0
  position:
    x: 60.9569085003047
    y: 34.9810611848173
    z: 29.959772883316
---
header:
  frame_id: tomsa_1
  seq: 205
  stamp:
    nsecs: 250000000
    secs: 410
pose:
  orientation:
    w: 0.0
    x: 0.0
    y: 0.0
    z: -1.0
  position:
    x: 59.9949689805915
    y: 34.9961232855243
    z: 29.9926006810905
---
header:
  frame_id: tomsa_1
  seq: 206
  stamp:
    nsecs: 500000000
    secs: 412
pose:
  orientation:
    w: 0.0
    x: 0.0
    y: 0.0
    z: -1.0
  position:
    x: 58.9695095317445
    y: 34.9847138483658
    z: 29.9868187288705
---
header:
  frame_id: tomsa_1
  seq: 207
  stamp:
    nsecs: 750000000
    secs: 414
pose:
  orientation:
    w: 0.0
    x: 0.0
    y: 0.0
    z: -1.0
  position:
    x: 57.9893055619675
    y: 34.9827731800291
    z: 29.9957950115262
---
header:
  frame_id: tomsa_1
  seq: 208
  stamp:
    nsecs: 0
    secs: 416
pose:
  orientation:
    w: 0.0
    x: 0.0
    y: 0.0
    z: -1.0
  position:
    x: 56.965499511807
    y: 34.9797742372579
    z: 29.9843506073529
---
header:
  frame_id: tomsa_1
  seq: 209
  stamp:
    nsecs: 250000000
    secs: 418
pose:
  orientation:
    w: 0.0
    x: 0.0
    y: 0.0
    z: -1.0
  position:
    x: 55.9568956175516
    y: 34.9632709913669
    z: 29.998494509149
---
header:
  frame_id: tomsa_1
  seq: 210
  stamp:
    nsecs: 500000000
    secs: 420
pose:
  orientation:
    w: 0.0
    x: 0.0
    y: 0.0
    z: -1.0
  position:
    x: 54.9871957420636
    y: 34.9814415347385
    z: 29.9550269563329
---
header:
  frame_id: tomsa_1
  seq: 211
  stamp:
    nsecs: 750000000
    secs: 422
pose:
  orientation:
    w: 0.0
    x: 0.0
    y: 0.0
    z: -1.0
  position:
    x: 53.9695412084133
    y: 34.9537458017055
    z: 29.971762239518
---
header:
  frame_id: tomsa_1
  seq: 212
  stamp:
    nsecs: 0
    secs: 424
pose:
  orientation:
    w: 0.0
    x: 0.0
    y: 0.0
    z: -1.0
  position:
    x: 52.9883052989058
    y: 34.9911897158535
    z: 29.9645926510376
---
header:
  frame_id: tomsa_1
  seq: 213
  stamp:
    nsecs: 250000000
    secs: 426
pose:
  orientation:
    w: 0.0
    x: 0.0
    y: 0.0
    z: -1.0
  position:
    x: 51.9777664870178
    y: 34.9518260468825
    z: 29.9805343518369
---
header:
  frame_id: tomsa_1
  seq: 214
  stamp:
    nsecs: 500000000
    secs: 428
pose:
  orientation:
    w: 0.0
    x: 0.0
    y: 0.0
    z: -1.0
  position:
    x: 50.9903825647968
    y: 34.9536468994435
    z: 29.9502440293813
---
header:
  frame_id: tomsa_1
  seq: 215
  stamp:
    nsecs: 750000000
    secs: 430
pose:
  orientation:
    w: 0.0
    x: 0.0
    y: 0.0
    z: -1.0
  position:
    x: 49.9596951353154
    y: 34.9794345993069
    z: 29.9563487586071
---
header:
  frame_id: tomsa_1
  seq: 216
  stamp:
    nsecs: 0
    secs: 432
pose:
  orientation:
    w: 0.0
    x: 0.0
    y: 0.0
    z: -1.0
  position:
    x: 48.9718650829485
    y: 34.9873131687267
    z: 29.9646976371223
---
header:
  frame_id: tomsa_1
  seq: 217
  stamp:
    nsecs: 250000000
    secs: 434
pose:
  orientation:
    w: 0.0
    x: 0.0
    y: 0.0
    z: -1.0
  position:
    x: 47.9952191511933
    y: 34.9551087367826
    z: 29.9510502372916
---
header:
  frame_id: tomsa_1
  seq: 218
  stamp:
    nsecs: 500000000
    secs: 436
pose:
  orientation:
    w: 0.0
    x: 0.0
    y: 0.0
    z: -1.0
  position:
    x: 46.9712148488617
    y: 34.9570447085575
    z: 29.9984451558245
---
header:
  frame_id: tomsa_1
  seq: 219
  stamp:
    nsecs: 750000000
    secs: 438
pose:
  orientation:
    w: 0.0
    x: 0.0
    y: 0.0
    z: -1.0
  position:
    x: 45.964571781186
    y: 34.9757796425583
    z: 29.9966041858992
---
header:
  frame_id: tomsa_1
  seq: 220
  stamp:
    nsecs: 0
    secs: 440
pose:
  orientation:
    w: 0.0
    x: 0.0
    y: 0.0
    z: -1.0
  position:
    x: 44.9913752932924
    y: 34.9618470976535
    z: 29.9810411831834
---
header:
  frame_id: tomsa_1
  seq: 221
  stamp:
    nsecs: 250000000
    secs: 442
pose:
  orientation:
    w: 0.0
    x: 0.0
    y: 0.0
    z: -1.0
  position:
    x: 43.993730912256
    y: 34.9918383101491
    z: 29.9830438391619
---
header:
  frame_id: tomsa_1
  seq: 222
  stamp:
    nsecs: 500000000
    secs: 444
pose:
  orientation:
    w: 0.0
    x: 0.0
    y: 0.0
    z: -1.0
  position:
    x: 42.9875070885824
    y: 34.9932078691447
    z: 29.9941270632482
---
header:
  frame_id: tomsa_1
  seq: 223
  stamp:
    nsecs: 750000000
    secs: 446
pose:
  orientation:
    w: 0.0
    x: 0.0
    y: 0.0
    z: -1.0
  position:
    x: 41.9500113650316
    y: 34.9601997794782
    z: 29.9912071614788
---
header:
  frame_id: tomsa_1
  seq: 224
  stamp:
    nsecs: 0
    secs: 448
pose:
  orientation:
    w: 0.0
    x: 0.0
    y: 0.0
    z: -1.0
  position:
    x: 40.9989533641383
    y: 34.9647104560579
    z: 29.9961818907547
---
header:
  frame_id: tomsa_1
  seq: 225
  stamp:
    nsecs: 250000000
    secs: 450
pose:
  orientation:
    w: 0.0
    x: 0.0
    y: 0.0
    z: -1.0
  position:
    x: 39.9947365484392
    y: 34.9668915708403
    z: 29.9656896874124
---
header:
  frame_id: tomsa_1
  seq: 226
  stamp:
    nsecs: 500000000
    secs: 452
pose:
  orientation:
    w: 0.0
    x: 0.0
    y: 0.0
    z: -1.0
  position:
    x: 38.9886193826882
    y: 34.9919497871556
    z: 29.9773261816972
---
header:
  frame_id: tomsa_1
  seq: 227
  stamp:
    nsecs: 750000000
    secs: 454
pose:
  orientation:
    w: 0.0
    x: 0.0
    y: 0.0
    z: -1.0
  position:
    x: 37.9913609944709
    y: 34.9686812599884
    z: 29.9766755869572
---
header:
  frame_id: tomsa_1
  seq: 228
  stamp:
    nsecs: 0
    secs: 456
pose:
  orientation:
    w: 0.0
    x: 0.0
    y: 0.0
    z: -1.0
  position:
    x: 36.9606944515178
    y: 34.9884801695119
    z: 29.9851725550207
---
header:
  frame_id: tomsa_1
  seq: 229
  stamp:
    nsecs: 250000000
    secs: 458
pose:
  orientation:
    w: 0.0
    x: 0.0
    y: 0.0
    z: -1.0
  position:
    x: 35.9851905389265
    y: 34.9991829595991
    z: 29.9714470006729
---
header:
  frame_id: tomsa_1
  seq: 230
  stamp:
    nsecs: 500000000
    secs: 460
pose:
  orientation:
    w: 0.0
    x: 0.0
    y: 0.0
    z: -1.0
  position:
    x: 34.9767501241787
    y: 34.9722264951406
    z: 29.9807923538045
---
header:
  frame_id: tomsa_1
  seq: 231
  stamp:
    nsecs: 750000000
    secs: 462
pose:
  orientation:
    w: 0.0
    x: 0.0
    y: 0.0
    z: -1.0
  position:
    x: 33.9695902649059
    y: 34.9564719448987
    z: 29.9868498574068
---
header:
  frame_id: tomsa_1
  seq: 232
  stamp:
    nsecs: 0
    secs: 464
pose:
  orientation:
    w: 0.0
    x: 0.0
    y: 0.0
    z: -1.0
  position:
    x: 32.9610487300345
    y: 34.9597209469325
    z: 29.9552841982361
---
header:
  frame_id: tomsa_1
  seq: 233
  stamp:
    nsecs: 250000000
    secs: 466
pose:
  orientation:
    w: 0.0
    x: 0.0
    y: 0.0
    z: -1.0
  position:
    x: 31.9740587775222
    y: 34.9509067501992
    z: 29.9590582468456
---
header:
  frame_id: tomsa_1
  seq: 234
  stamp:
    nsecs: 500000000
    secs: 468
pose:
  orientation:
    w: 0.0
    x: 0.0
    y: 0.0
    z: -1.0
  position:
    x: 30.9888713416457
    y: 34.9735203626259
    z: 29.9831680894939
---
header:
  frame_id: tomsa_1
  seq: 235
  stamp:
    nsecs: 750000000
    secs: 470
pose:
  orientation:
    w: 0.0
    x: 0.0
    y: 0.0
    z: -1.0
  position:
    x: 29.9741640514571
    y: 34.9856540713323
    z: 29.9590121286022
---
header:
  frame_id: tomsa_1
  seq: 236
  stamp:
    nsecs: 0
    secs: 472
pose:
  orientation:
    w: 0.0
    x: 0.0
    y: 0.0
    z: -1.0
  position:
    x: 28.9840423923303
    y: 34.9647296636536
    z: 29.9648375365699
---
header:
  frame_id: tomsa_1
  seq: 237
  stamp:
    nsecs: 250000000
