header:
  frame_id: map
  seq: 26791
  stamp:
    nsecs: 897182540
    secs: 1693405729
temperature: 25.42161570825349
variance: 0.0765743056326815
---
header:
  frame_id: map
  seq: 26791
  stamp:
    nsecs: 897182640
    secs: 1693405729
temperature: 25.42161570825349
variance: 0.0765743056326815
---
header:
  frame_id: map
  seq: 26791
  stamp:
    nsecs: 897183740
    secs: 1693405729
temperature: 25.42161570825349
variance: 0.0765743056326815
---
header:
  frame_id: map
  seq: 26792
  stamp:
    nsecs: 926481582
    secs: 1693405729
temperature: 24.65081636740299
variance: 0.07427622624943167
---
header:
  frame_id: map
  seq: 26792
  stamp:
    nsecs: 926481682
    secs: 1693405729
temperature: 24.65081636740299
variance: 0.07427622624943167
---
header:
  frame_id: map
  seq: 26792
  stamp:
    nsecs: 926482782
    secs: 1693405729
temperature: 24.65081636740299
variance: 0.07427622624943167
---
header:
  frame_id: map
  seq: 26793
  stamp:
    nsecs: 956787067
    secs: 1693405729
temperature: 24.885451355438168
variance: 0.07427622624943167
---
header:
  frame_id: map
  seq: 26793
  stamp:
    nsecs: 956787167
    secs: 1693405729
temperature: 24.885451355438168
variance: 0.07427622624943167
---
header:
  frame_id: map
  seq: 26793
  stamp:
    nsecs: 956788267
    secs: 1693405729
temperature: 24.885451355438168
variance: 0.07427622624943167
---
header:
  frame_id: map
  seq: 26794
  stamp:
    nsecs: 996850458
    secs: 1693405729
temperature: 24.74331532854867
variance: 0.07427622624943167
---
header:
  frame_id: map
  seq: 26794
  stamp:
    nsecs: 996850558
    secs: 1693405729
temperature: 24.74331532854867
variance: 0.07427622624943167
---
header:
  frame_id: map
  seq: 26794
  stamp:
    nsecs: 996851658
    secs: 1693405729
temperature: 24.74331532854867
variance: 0.07427622624943167
---
header:
  frame_id: map
  seq: 26795
  stamp:
    nsecs: 27105009
    secs: 1693405730
temperature: 25.06224972326271
variance: 0.07427622624943167
---
header:
  frame_id: map
  seq: 26795
  stamp:
    nsecs: 27105109
    secs: 1693405730
temperature: 25.06224972326271
variance: 0.07427622624943167
---
header:
  frame_id: map
  seq: 26795
  stamp:
    nsecs: 27106209
    secs: 1693405730
temperature: 25.06224972326271
variance: 0.07427622624943167
---
header:
  frame_id: map
  seq: 26796
  stamp:
    nsecs: 56397721
    secs: 1693405730
temperature: 25.093354985152477
variance: 0.029945045953392268
---
header:
  frame_id: map
  seq: 26796
  stamp:
    nsecs: 56397821
    secs: 1693405730
temperature: 25.093354985152477
variance: 0.029945045953392268
---
header:
  frame_id: map
  seq: 26796
  stamp:
    nsecs: 56398921
    secs: 1693405730
temperature: 25.093354985152477
variance: 0.029945045953392268
---
header:
  frame_id: map
  seq: 26797
  stamp:
    nsecs: 96437708
    secs: 1693405730
temperature: 25.059674834696324
variance: 0.018059072773542816
---
header:
  frame_id: map
  seq: 26797
  stamp:
    nsecs: 96437808
    secs: 1693405730
temperature: 25.059674834696324
variance: 0.018059072773542816
---
header:
  frame_id: map
  seq: 26797
  stamp:
    nsecs: 96438908
    secs: 1693405730
temperature: 25.059674834696324
variance: 0.018059072773542816
---
header:
  frame_id: map
  seq: 26798
  stamp:
    nsecs: 127675135
    secs: 1693405730
temperature: 24.795085287719523
variance: 0.022378726857112417
---
header:
  frame_id: map
  seq: 26798
  stamp:
    nsecs: 127675235
    secs: 1693405730
temperature: 24.795085287719523
variance: 0.022378726857112417
---
header:
  frame_id: map
  seq: 26798
  stamp:
    nsecs: 127676335
    secs: 1693405730
temperature: 24.795085287719523
variance: 0.022378726857112417
---
header:
  frame_id: map
  seq: 26799
  stamp:
    nsecs: 156955561
    secs: 1693405730
temperature: 24.745965431391244
variance: 0.022159976066126203
---
header:
  frame_id: map
  seq: 26799
  stamp:
    nsecs: 156955661
    secs: 1693405730
temperature: 24.745965431391244
variance: 0.022159976066126203
---
header:
  frame_id: map
  seq: 26799
  stamp:
    nsecs: 156956761
    secs: 1693405730
temperature: 24.745965431391244
variance: 0.022159976066126203
---
header:
  frame_id: map
  seq: 26800
  stamp:
    nsecs: 197024644
    secs: 1693405730
temperature: 25.32040148766879
variance: 0.044283001597480054
---
header:
  frame_id: map
  seq: 26800
  stamp:
    nsecs: 197024744
    secs: 1693405730
temperature: 25.32040148766879
variance: 0.044283001597480054
---
header:
  frame_id: map
  seq: 26800
  stamp:
    nsecs: 197025844
    secs: 1693405730
temperature: 25.32040148766879
variance: 0.044283001597480054
---
header:
  frame_id: map
  seq: 26801
  stamp:
    nsecs: 227251913
    secs: 1693405730
temperature: 25.003621946670325
variance: 0.04232447521886255
---
header:
  frame_id: map
  seq: 26801
  stamp:
    nsecs: 227252013
    secs: 1693405730
temperature: 25.003621946670325
variance: 0.04232447521886255
---
header:
  frame_id: map
  seq: 26801
  stamp:
    nsecs: 227253113
    secs: 1693405730
temperature: 25.003621946670325
variance: 0.04232447521886255
---
header:
  frame_id: map
  seq: 26802
  stamp:
    nsecs: 256513894
    secs: 1693405730
temperature: 24.783288752316228
variance: 0.04628557376393794
---
header:
  frame_id: map
  seq: 26802
  stamp:
    nsecs: 256513994
    secs: 1693405730
temperature: 24.783288752316228
variance: 0.04628557376393794
---
header:
  frame_id: map
  seq: 26802
  stamp:
    nsecs: 256515094
    secs: 1693405730
temperature: 24.783288752316228
variance: 0.04628557376393794
---
header:
  frame_id: map
  seq: 26803
  stamp:
    nsecs: 296567130
    secs: 1693405730
temperature: 25.138965985000482
variance: 0.04669341427347312
---
header:
  frame_id: map
  seq: 26803
  stamp:
    nsecs: 296567230
    secs: 1693405730
temperature: 25.138965985000482
variance: 0.04669341427347312
---
header:
  frame_id: map
  seq: 26803
  stamp:
    nsecs: 296568330
    secs: 1693405730
temperature: 25.138965985000482
variance: 0.04669341427347312
---
header:
  frame_id: map
  seq: 26804
  stamp:
    nsecs: 326850181
    secs: 1693405730
temperature: 25.017172438162763
variance: 0.031071837905512857
---
header:
  frame_id: map
  seq: 26804
  stamp:
    nsecs: 326850281
    secs: 1693405730
temperature: 25.017172438162763
variance: 0.031071837905512857
---
header:
  frame_id: map
  seq: 26804
  stamp:
    nsecs: 326851381
    secs: 1693405730
temperature: 25.017172438162763
variance: 0.031071837905512857
---
header:
  frame_id: map
  seq: 26805
  stamp:
    nsecs: 357033996
    secs: 1693405730
temperature: 24.889502686716874
variance: 0.014637039577994532
---
header:
  frame_id: map
  seq: 26805
  stamp:
    nsecs: 357034096
    secs: 1693405730
temperature: 24.889502686716874
variance: 0.014637039577994532
---
header:
  frame_id: map
  seq: 26805
  stamp:
    nsecs: 357035196
    secs: 1693405730
temperature: 24.889502686716874
variance: 0.014637039577994532
---
header:
  frame_id: map
  seq: 26806
  stamp:
    nsecs: 396992328
    secs: 1693405730
temperature: 25.29180861226579
variance: 0.03220331381689038
---
header:
  frame_id: map
  seq: 26806
  stamp:
    nsecs: 396992428
    secs: 1693405730
temperature: 25.29180861226579
variance: 0.03220331381689038
---
header:
  frame_id: map
  seq: 26806
  stamp:
    nsecs: 396993528
    secs: 1693405730
temperature: 25.29180861226579
variance: 0.03220331381689038
---
header:
  frame_id: map
  seq: 26807
  stamp:
    nsecs: 426215684
    secs: 1693405730
temperature: 24.964371150947
variance: 0.02000372141056239
---
header:
  frame_id: map
  seq: 26807
  stamp:
    nsecs: 426215784
    secs: 1693405730
temperature: 24.964371150947
variance: 0.02000372141056239
---
header:
  frame_id: map
  seq: 26807
  stamp:
    nsecs: 426216884
    secs: 1693405730
temperature: 24.964371150947
variance: 0.02000372141056239
---
header:
  frame_id: map
  seq: 26808
  stamp:
    nsecs: 456426360
    secs: 1693405730
temperature: 25.231512196388138
variance: 0.02428380951293812
---
header:
  frame_id: map
  seq: 26808
  stamp:
    nsecs: 456426460
    secs: 1693405730
temperature: 25.231512196388138
variance: 0.02428380951293812
---
header:
  frame_id: map
  seq: 26808
  stamp:
    nsecs: 456427560
    secs: 1693405730
temperature: 25.231512196388138
variance: 0.02428380951293812
---
header:
  frame_id: map
  seq: 26809
  stamp:
    nsecs: 496454962
    secs: 1693405730
temperature: 25.41475475544319
variance: 0.03976279411387988
---
header:
  frame_id: map
  seq: 26809
  stamp:
    nsecs: 496455062
    secs: 1693405730
temperature: 25.41475475544319
variance: 0.03976279411387988
---
header:
  frame_id: map
  seq: 26809
  stamp:
    nsecs: 496456162
    secs: 1693405730
temperature: 25.41475475544319
variance: 0.03976279411387988
---
header:
  frame_id: map
  seq: 26810
  stamp:
    nsecs: 526743087
    secs: 1693405730
temperature: 25.47360702432034
variance: 0.03152798401566293
---
header:
  frame_id: map
  seq: 26810
  stamp:
    nsecs: 526743187
    secs: 1693405730
temperature: 25.47360702432034
variance: 0.03152798401566293
---
header:
  frame_id: map
  seq: 26810
  stamp:
    nsecs: 526744287
    secs: 1693405730
temperature: 25.47360702432034
variance: 0.03152798401566293
---
header:
  frame_id: map
  seq: 26811
  stamp:
    nsecs: 556026869
    secs: 1693405730
temperature: 25.55202590960021
variance: 0.044089691274325056
---
header:
  frame_id: map
  seq: 26811
  stamp:
    nsecs: 556026969
    secs: 1693405730
temperature: 25.55202590960021
variance: 0.044089691274325056
---
header:
  frame_id: map
  seq: 26811
  stamp:
    nsecs: 556028069
    secs: 1693405730
temperature: 25.55202590960021
variance: 0.044089691274325056
---
header:
  frame_id: map
  seq: 26812
  stamp:
    nsecs: 596067957
    secs: 1693405730
temperature: 25.12874929311995
variance: 0.024552901999847332
---
header:
  frame_id: map
  seq: 26812
  stamp:
    nsecs: 596068057
    secs: 1693405730
temperature: 25.12874929311995
variance: 0.024552901999847332
---
header:
  frame_id: map
  seq: 26812
  stamp:
    nsecs: 596069157
    secs: 1693405730
temperature: 25.12874929311995
variance: 0.024552901999847332
---
header:
  frame_id: map
  seq: 26813
  stamp:
    nsecs: 626357763
    secs: 1693405730
temperature: 25.57864385712395
variance: 0.025974062477455383
---
header:
  frame_id: map
  seq: 26813
  stamp:
    nsecs: 626357863
    secs: 1693405730
temperature: 25.57864385712395
variance: 0.025974062477455383
---
header:
  frame_id: map
  seq: 26813
  stamp:
    nsecs: 626358963
    secs: 1693405730
temperature: 25.57864385712395
variance: 0.025974062477455383
---
header:
  frame_id: map
  seq: 26814
  stamp:
    nsecs: 656699295
    secs: 1693405730
temperature: 25.57009478778817
variance: 0.028915245824031204
---
header:
  frame_id: map
  seq: 26814
  stamp:
    nsecs: 656699395
    secs: 1693405730
temperature: 25.57009478778817
variance: 0.028915245824031204
---
header:
  frame_id: map
  seq: 26814
  stamp:
    nsecs: 656700495
    secs: 1693405730
temperature: 25.57009478778817
variance: 0.028915245824031204
---
header:
  frame_id: map
  seq: 26815
  stamp:
    nsecs: 696805223
    secs: 1693405730
temperature: 24.9571093400624
variance: 0.06891617830951449
---
header:
  frame_id: map
  seq: 26815
  stamp:
    nsecs: 696805323
    secs: 1693405730
temperature: 24.9571093400624
variance: 0.06891617830951449
---
header:
  frame_id: map
  seq: 26815
  stamp:
    nsecs: 696806423
    secs: 1693405730
temperature: 24.9571093400624
variance: 0.06891617830951449
---
header:
  frame_id: map
  seq: 26816
  stamp:
    nsecs: 726121906
    secs: 1693405730
temperature: 25.68202203567568
variance: 0.08174418160062775
---
header:
  frame_id: map
  seq: 26816
  stamp:
    nsecs: 726122006
    secs: 1693405730
temperature: 25.68202203567568
variance: 0.08174418160062775
---
header:
  frame_id: map
  seq: 26816
  stamp:
    nsecs: 726123106
    secs: 1693405730
temperature: 25.68202203567568
variance: 0.08174418160062775
---
header:
  frame_id: map
  seq: 26817
  stamp:
    nsecs: 756416480
    secs: 1693405730
temperature: 25.095431392715334
variance: 0.08531455086125368
---
header:
  frame_id: map
  seq: 26817
  stamp:
    nsecs: 756416580
    secs: 1693405730
temperature: 25.095431392715334
variance: 0.08531455086125368
---
header:
  frame_id: map
  seq: 26817
  stamp:
    nsecs: 756417680
    secs: 1693405730
temperature: 25.095431392715334
variance: 0.08531455086125368
---
header:
  frame_id: map
  seq: 26818
  stamp:
    nsecs: 796487494
    secs: 1693405730
temperature: 24.701072742524047
variance: 0.1376335404253925
---
header:
  frame_id: map
  seq: 26818
  stamp:
    nsecs: 796487594
    secs: 1693405730
temperature: 24.701072742524047
variance: 0.1376335404253925
---
header:
  frame_id: map
  seq: 26818
  stamp:
    nsecs: 796488694
    secs: 1693405730
temperature: 24.701072742524047
variance: 0.1376335404253925
---
header:
  frame_id: map
  seq: 26819
  stamp:
    nsecs: 826795377
    secs: 1693405730
temperature: 24.92078408376587
variance: 0.1092652995432352
---
header:
  frame_id: map
  seq: 26819
  stamp:
    nsecs: 826795477
    secs: 1693405730
temperature: 24.92078408376587
variance: 0.1092652995432352
---
header:
  frame_id: map
  seq: 26819
  stamp:
    nsecs: 826796577
    secs: 1693405730
temperature: 24.92078408376587
variance: 0.1092652995432352
---
header:
  frame_id: map
  seq: 26820
  stamp:
    nsecs: 857113982
    secs: 1693405730
temperature: 25.491244317604075
variance: 0.13051947296888802
---
header:
  frame_id: map
  seq: 26820
  stamp:
    nsecs: 857114082
    secs: 1693405730
temperature: 25.491244317604075
variance: 0.13051947296888802
---
header:
  frame_id: map
  seq: 26820
  stamp:
    nsecs: 857115182
    secs: 1693405730
temperature: 25.491244317604075
variance: 0.13051947296888802
---
header:
  frame_id: map
  seq: 26821
  stamp:
    nsecs: 896237437
    secs: 1693405730
temperature: 25.348270037574096
variance: 0.08106939893783872
---
header:
  frame_id: map
  seq: 26821
  stamp:
    nsecs: 896237537
    secs: 1693405730
temperature: 25.348270037574096
variance: 0.08106939893783872
---
header:
  frame_id: map
  seq: 26821
  stamp:
    nsecs: 896238637
    secs: 1693405730
temperature: 25.348270037574096
variance: 0.08106939893783872
---
header:
  frame_id: map
  seq: 26822
  stamp:
    nsecs: 926544781
    secs: 1693405730
temperature: 25.517041931796896
variance: 0.10682391609831059
---
header:
  frame_id: map
  seq: 26822
  stamp:
    nsecs: 926544881
    secs: 1693405730
temperature: 25.517041931796896
variance: 0.10682391609831059
---
header:
  frame_id: map
  seq: 26822
  stamp:
    nsecs: 926545981
    secs: 1693405730
temperature: 25.517041931796896
variance: 0.10682391609831059
---
header:
  frame_id: map
  seq: 26823
  stamp:
    nsecs: 956859131
    secs: 1693405730
temperature: 25.349281314452277
variance: 0.045807666909716487
---
header:
  frame_id: map
  seq: 26823
  stamp:
    nsecs: 956859231
    secs: 1693405730
temperature: 25.349281314452277
variance: 0.045807666909716487
---
header:
  frame_id: map
  seq: 26823
  stamp:
    nsecs: 956860331
    secs: 1693405730
temperature: 25.349281314452277
variance: 0.045807666909716487
---
header:
  frame_id: map
  seq: 26824
  stamp:
    nsecs: 996928931
    secs: 1693405730
temperature: 24.962883516264945
variance: 0.03927887883006921
---
header:
  frame_id: map
  seq: 26824
  stamp:
    nsecs: 996929031
    secs: 1693405730
temperature: 24.962883516264945
variance: 0.03927887883006921
---
header:
  frame_id: map
  seq: 26824
  stamp:
    nsecs: 996930131
    secs: 1693405730
temperature: 24.962883516264945
variance: 0.03927887883006921
---
header:
  frame_id: map
  seq: 26825
  stamp:
    nsecs: 27195116
    secs: 1693405731
temperature: 25.31439264923861
variance: 0.03314145908536416
---
header:
  frame_id: map
  seq: 26825
  stamp:
    nsecs: 27195216
    secs: 1693405731
temperature: 25.31439264923861
variance: 0.03314145908536416
---
header:
  frame_id: map
  seq: 26825
  stamp:
    nsecs: 27196316
    secs: 1693405731
temperature: 25.31439264923861
variance: 0.03314145908536416
---
header:
  frame_id: map
  seq: 26826
  stamp:
    nsecs: 56488664
    secs: 1693405731
temperature: 24.738379612509945
variance: 0.08048359888489637
---
header:
  frame_id: map
  seq: 26826
  stamp:
    nsecs: 56488764
    secs: 1693405731
temperature: 24.738379612509945
variance: 0.08048359888489637
---
header:
  frame_id: map
  seq: 26826
  stamp:
    nsecs: 56489864
    secs: 1693405731
temperature: 24.738379612509945
variance: 0.08048359888489637
---
header:
  frame_id: map
  seq: 26827
  stamp:
    nsecs: 96582184
    secs: 1693405731
temperature: 25.32071496034646
variance: 0.059899474664197525
---
header:
  frame_id: map
  seq: 26827
  stamp:
    nsecs: 96582284
    secs: 1693405731
temperature: 25.32071496034646
variance: 0.059899474664197525
---
header:
  frame_id: map
  seq: 26827
  stamp:
    nsecs: 96583384
    secs: 1693405731
temperature: 25.32071496034646
variance: 0.059899474664197525
---
header:
  frame_id: map
  seq: 26828
  stamp:
    nsecs: 126914584
    secs: 1693405731
temperature: 25.27492859310044
variance: 0.05447440819520105
---
header:
  frame_id: map
  seq: 26828
  stamp:
    nsecs: 126914684
    secs: 1693405731
temperature: 25.27492859310044
variance: 0.05447440819520105
---
header:
  frame_id: map
  seq: 26828
  stamp:
    nsecs: 126915784
    secs: 1693405731
temperature: 25.27492859310044
variance: 0.05447440819520105
---
header:
  frame_id: map
  seq: 26829
  stamp:
    nsecs: 157238220
    secs: 1693405731
temperature: 25.200679251899505
variance: 0.04836229153797661
---
header:
  frame_id: map
  seq: 26829
  stamp:
    nsecs: 157238320
    secs: 1693405731
temperature: 25.200679251899505
variance: 0.04836229153797661
---
header:
  frame_id: map
  seq: 26829
  stamp:
    nsecs: 157239420
    secs: 1693405731
temperature: 25.200679251899505
variance: 0.04836229153797661
---
header:
  frame_id: map
  seq: 26830
  stamp:
    nsecs: 197327350
    secs: 1693405731
temperature: 25.52592153672236
variance: 0.06775400691415669
---
header:
  frame_id: map
  seq: 26830
  stamp:
    nsecs: 197327450
    secs: 1693405731
temperature: 25.52592153672236
variance: 0.06775400691415669
---
header:
  frame_id: map
  seq: 26830
  stamp:
    nsecs: 197328550
    secs: 1693405731
temperature: 25.52592153672236
variance: 0.06775400691415669
---
header:
  frame_id: map
  seq: 26831
  stamp:
    nsecs: 226629706
    secs: 1693405731
temperature: 25.00117326300827
variance: 0.029004797417218627
---
header:
  frame_id: map
  seq: 26831
  stamp:
    nsecs: 226629806
    secs: 1693405731
temperature: 25.00117326300827
variance: 0.029004797417218627
---
header:
  frame_id: map
  seq: 26831
  stamp:
    nsecs: 226630906
    secs: 1693405731
temperature: 25.00117326300827
variance: 0.029004797417218627
---
header:
  frame_id: map
  seq: 26832
  stamp:
    nsecs: 256890913
    secs: 1693405731
temperature: 24.831187994521724
variance: 0.056375101265741
---
header:
  frame_id: map
  seq: 26832
  stamp:
    nsecs: 256891013
    secs: 1693405731
temperature: 24.831187994521724
variance: 0.056375101265741
---
header:
  frame_id: map
  seq: 26832
  stamp:
    nsecs: 256892113
    secs: 1693405731
temperature: 24.831187994521724
variance: 0.056375101265741
---
header:
  frame_id: map
  seq: 26833
  stamp:
    nsecs: 296964196
    secs: 1693405731
temperature: 25.48185173489645
variance: 0.0721773847459483
---
header:
  frame_id: map
  seq: 26833
  stamp:
    nsecs: 296964296
    secs: 1693405731
temperature: 25.48185173489645
variance: 0.0721773847459483
---
header:
  frame_id: map
  seq: 26833
  stamp:
    nsecs: 296965396
    secs: 1693405731
temperature: 25.48185173489645
variance: 0.0721773847459483
---
header:
  frame_id: map
  seq: 26834
  stamp:
    nsecs: 327270406
    secs: 1693405731
temperature: 25.137776272733
variance: 0.07299876419831748
---
header:
  frame_id: map
  seq: 26834
  stamp:
    nsecs: 327270506
    secs: 1693405731
temperature: 25.137776272733
variance: 0.07299876419831748
---
header:
  frame_id: map
  seq: 26834
  stamp:
    nsecs: 327271606
    secs: 1693405731
temperature: 25.137776272733
variance: 0.07299876419831748
---
header:
  frame_id: map
  seq: 26835
  stamp:
    nsecs: 356561594
    secs: 1693405731
temperature: 24.806698143476016
variance: 0.060728807629782534
---
header:
  frame_id: map
  seq: 26835
  stamp:
    nsecs: 356561694
    secs: 1693405731
temperature: 24.806698143476016
variance: 0.060728807629782534
---
header:
  frame_id: map
  seq: 26835
  stamp:
    nsecs: 356562794
    secs: 1693405731
temperature: 24.806698143476016
variance: 0.060728807629782534
---
header:
  frame_id: map
  seq: 26836
  stamp:
    nsecs: 396597024
    secs: 1693405731
temperature: 25.397552242202533
variance: 0.0778503774935075
---
header:
  frame_id: map
  seq: 26836
  stamp:
    nsecs: 396597124
    secs: 1693405731
temperature: 25.397552242202533
variance: 0.0778503774935075
---
header:
  frame_id: map
  seq: 26836
  stamp:
    nsecs: 396598224
    secs: 1693405731
temperature: 25.397552242202533
variance: 0.0778503774935075
---
header:
  frame_id: map
  seq: 26837
  stamp:
    nsecs: 426852246
    secs: 1693405731
temperature: 25.112898981299622
variance: 0.056762519765987826
---
header:
  frame_id: map
  seq: 26837
  stamp:
    nsecs: 426852346
    secs: 1693405731
temperature: 25.112898981299622
variance: 0.056762519765987826
---
header:
  frame_id: map
  seq: 26837
  stamp:
    nsecs: 426853446
    secs: 1693405731
temperature: 25.112898981299622
variance: 0.056762519765987826
---
header:
  frame_id: map
  seq: 26838
  stamp:
    nsecs: 457111588
    secs: 1693405731
temperature: 25.52613007495277
variance: 0.06229213340748476
---
header:
  frame_id: map
  seq: 26838
  stamp:
    nsecs: 457111688
    secs: 1693405731
temperature: 25.52613007495277
variance: 0.06229213340748476
---
header:
  frame_id: map
  seq: 26838
  stamp:
    nsecs: 457112788
    secs: 1693405731
temperature: 25.52613007495277
variance: 0.06229213340748476
---
header:
  frame_id: map
  seq: 26839
  stamp:
    nsecs: 497117165
    secs: 1693405731
temperature: 24.670780307515695
variance: 0.10810130989668273
---
header:
  frame_id: map
  seq: 26839
  stamp:
    nsecs: 497117265
    secs: 1693405731
temperature: 24.670780307515695
variance: 0.10810130989668273
---
header:
  frame_id: map
  seq: 26839
  stamp:
    nsecs: 497118365
    secs: 1693405731
temperature: 24.670780307515695
variance: 0.10810130989668273
---
header:
  frame_id: map
  seq: 26840
  stamp:
    nsecs: 526410252
    secs: 1693405731
temperature: 24.66274540043876
variance: 0.12846745052691466
---
header:
  frame_id: map
  seq: 26840
  stamp:
    nsecs: 526410352
    secs: 1693405731
temperature: 24.66274540043876
variance: 0.12846745052691466
---
header:
  frame_id: map
  seq: 26840
  stamp:
    nsecs: 526411452
    secs: 1693405731
temperature: 24.66274540043876
variance: 0.12846745052691466
---
header:
  frame_id: map
  seq: 26841
  stamp:
    nsecs: 556682074
    secs: 1693405731
temperature: 25.26047491913356
variance: 0.11373438468541268
---
header:
  frame_id: map
  seq: 26841
  stamp:
    nsecs: 556682174
    secs: 1693405731
temperature: 25.26047491913356
variance: 0.11373438468541268
---
header:
  frame_id: map
  seq: 26841
  stamp:
    nsecs: 556683274
    secs: 1693405731
temperature: 25.26047491913356
variance: 0.11373438468541268
---
header:
  frame_id: map
  seq: 26842
  stamp:
    nsecs: 596722366
    secs: 1693405731
temperature: 24.78909803734089
variance: 0.12192361272294686
---
header:
  frame_id: map
  seq: 26842
  stamp:
    nsecs: 596722466
    secs: 1693405731
temperature: 24.78909803734089
variance: 0.12192361272294686
---
header:
  frame_id: map
  seq: 26842
  stamp:
    nsecs: 596723566
    secs: 1693405731
temperature: 24.78909803734089
variance: 0.12192361272294686
---
header:
  frame_id: map
  seq: 26843
  stamp:
    nsecs: 626991775
    secs: 1693405731
temperature: 25.47678665097021
variance: 0.11157043555420057
---
header:
  frame_id: map
  seq: 26843
  stamp:
    nsecs: 626991875
    secs: 1693405731
temperature: 25.47678665097021
variance: 0.11157043555420057
---
header:
  frame_id: map
  seq: 26843
  stamp:
    nsecs: 626992975
    secs: 1693405731
temperature: 25.47678665097021
variance: 0.11157043555420057
---
header:
  frame_id: map
  seq: 26844
  stamp:
    nsecs: 657267772
    secs: 1693405731
temperature: 25.14903440546458
variance: 0.09054731965200373
---
header:
  frame_id: map
  seq: 26844
  stamp:
    nsecs: 657267872
    secs: 1693405731
temperature: 25.14903440546458
variance: 0.09054731965200373
---
header:
  frame_id: map
  seq: 26844
  stamp:
    nsecs: 657268972
    secs: 1693405731
temperature: 25.14903440546458
variance: 0.09054731965200373
---
header:
  frame_id: map
  seq: 26845
  stamp:
    nsecs: 697280327
    secs: 1693405731
temperature: 25.046994902636055
variance: 0.0519405915439804
---
header:
  frame_id: map
  seq: 26845
  stamp:
    nsecs: 697280427
    secs: 1693405731
temperature: 25.046994902636055
variance: 0.0519405915439804
---
header:
  frame_id: map
  seq: 26845
  stamp:
    nsecs: 697281527
    secs: 1693405731
temperature: 25.046994902636055
variance: 0.0519405915439804
---
header:
  frame_id: map
  seq: 26846
  stamp:
    nsecs: 726540283
    secs: 1693405731
temperature: 25.561629382585785
variance: 0.08042485538571335
---
header:
  frame_id: map
  seq: 26846
  stamp:
    nsecs: 726540383
    secs: 1693405731
temperature: 25.561629382585785
variance: 0.08042485538571335
---
header:
  frame_id: map
  seq: 26846
  stamp:
    nsecs: 726541483
    secs: 1693405731
temperature: 25.561629382585785
variance: 0.08042485538571335
---
header:
  frame_id: map
  seq: 26847
  stamp:
    nsecs: 756816821
    secs: 1693405731
temperature: 24.93960848510474
variance: 0.059027901251555034
---
header:
  frame_id: map
  seq: 26847
  stamp:
    nsecs: 756816921
    secs: 1693405731
temperature: 24.93960848510474
variance: 0.059027901251555034
---
header:
  frame_id: map
  seq: 26847
  stamp:
    nsecs: 756818021
    secs: 1693405731
temperature: 24.93960848510474
variance: 0.059027901251555034
---
header:
  frame_id: map
  seq: 26848
  stamp:
    nsecs: 796836676
    secs: 1693405731
temperature: 25.19701719239884
variance: 0.044472268240782535
---
header:
  frame_id: map
  seq: 26848
  stamp:
    nsecs: 796836776
    secs: 1693405731
temperature: 25.19701719239884
variance: 0.044472268240782535
---
header:
  frame_id: map
  seq: 26848
  stamp:
    nsecs: 796837876
    secs: 1693405731
temperature: 25.19701719239884
variance: 0.044472268240782535
---
header:
  frame_id: map
  seq: 26849
  stamp:
    nsecs: 827059340
    secs: 1693405731
temperature: 25.48254893018781
variance: 0.058290887833427875
---
header:
  frame_id: map
  seq: 26849
  stamp:
    nsecs: 827059440
    secs: 1693405731
temperature: 25.48254893018781
variance: 0.058290887833427875
---
header:
  frame_id: map
  seq: 26849
  stamp:
    nsecs: 827060540
    secs: 1693405731
temperature: 25.48254893018781
variance: 0.058290887833427875
---
header:
  frame_id: map
  seq: 26850
  stamp:
    nsecs: 857311149
    secs: 1693405731
temperature: 25.02465158235116
variance: 0.060145403115486294
---
header:
  frame_id: map
  seq: 26850
  stamp:
    nsecs: 857311249
    secs: 1693405731
temperature: 25.02465158235116
variance: 0.060145403115486294
---
header:
  frame_id: map
  seq: 26850
  stamp:
    nsecs: 857312349
    secs: 1693405731
temperature: 25.02465158235116
variance: 0.060145403115486294
---
header:
  frame_id: map
  seq: 26851
  stamp:
    nsecs: 896304608
    secs: 1693405731
temperature: 25.59598177126058
variance: 0.06473871904053112
---
header:
  frame_id: map
  seq: 26851
  stamp:
    nsecs: 896304708
    secs: 1693405731
temperature: 25.59598177126058
variance: 0.06473871904053112
---
header:
  frame_id: map
  seq: 26851
  stamp:
    nsecs: 896305808
    secs: 1693405731
temperature: 25.59598177126058
variance: 0.06473871904053112
---
header:
  frame_id: map
  seq: 26852
  stamp:
    nsecs: 926551806
    secs: 1693405731
temperature: 25.82231826028357
variance: 0.08053244583462628
---
header:
  frame_id: map
  seq: 26852
  stamp:
    nsecs: 926551906
    secs: 1693405731
temperature: 25.82231826028357
variance: 0.08053244583462628
---
header:
  frame_id: map
  seq: 26852
  stamp:
    nsecs: 926553006
    secs: 1693405731
temperature: 25.82231826028357
variance: 0.08053244583462628
---
header:
  frame_id: map
  seq: 26853
  stamp:
    nsecs: 956816295
    secs: 1693405731
temperature: 25.821012770847084
variance: 0.08605153109694726
---
header:
  frame_id: map
  seq: 26853
  stamp:
    nsecs: 956816395
    secs: 1693405731
temperature: 25.821012770847084
variance: 0.08605153109694726
---
header:
  frame_id: map
  seq: 26853
  stamp:
    nsecs: 956817495
    secs: 1693405731
temperature: 25.821012770847084
variance: 0.08605153109694726
---
header:
  frame_id: map
  seq: 26854
  stamp:
    nsecs: 996906188
    secs: 1693405731
temperature: 25.826971883439754
variance: 0.09583527129685065
---
header:
  frame_id: map
  seq: 26854
  stamp:
    nsecs: 996906288
    secs: 1693405731
temperature: 25.826971883439754
variance: 0.09583527129685065
---
header:
  frame_id: map
  seq: 26854
  stamp:
    nsecs: 996907388
    secs: 1693405731
temperature: 25.826971883439754
variance: 0.09583527129685065
---
header:
  frame_id: map
  seq: 26855
  stamp:
    nsecs: 26206405
    secs: 1693405732
temperature: 25.546973996828743
variance: 0.015479790081643751
---
header:
  frame_id: map
  seq: 26855
  stamp:
    nsecs: 26206505
    secs: 1693405732
temperature: 25.546973996828743
variance: 0.015479790081643751
---
header:
  frame_id: map
  seq: 26855
  stamp:
    nsecs: 26207605
    secs: 1693405732
temperature: 25.546973996828743
variance: 0.015479790081643751
---
header:
  frame_id: map
  seq: 26856
  stamp:
    nsecs: 57454485
    secs: 1693405732
temperature: 25.66868626478901
variance: 0.012641750754192401
---
header:
  frame_id: map
  seq: 26856
  stamp:
    nsecs: 57454585
    secs: 1693405732
temperature: 25.66868626478901
variance: 0.012641750754192401
---
header:
  frame_id: map
  seq: 26856
  stamp:
    nsecs: 57455685
    secs: 1693405732
temperature: 25.66868626478901
variance: 0.012641750754192401
---
header:
  frame_id: map
  seq: 26857
  stamp:
    nsecs: 96499613
    secs: 1693405732
temperature: 25.54886393452325
variance: 0.015294925517772257
---
header:
  frame_id: map
  seq: 26857
  stamp:
    nsecs: 96499713
    secs: 1693405732
temperature: 25.54886393452325
variance: 0.015294925517772257
---
header:
  frame_id: map
  seq: 26857
  stamp:
    nsecs: 96500813
    secs: 1693405732
temperature: 25.54886393452325
variance: 0.015294925517772257
---
header:
  frame_id: map
  seq: 26858
  stamp:
    nsecs: 126785622
    secs: 1693405732
temperature: 25.003677343355765
variance: 0.07689689847509351
---
header:
  frame_id: map
  seq: 26858
  stamp:
    nsecs: 126785722
    secs: 1693405732
temperature: 25.003677343355765
variance: 0.07689689847509351
---
header:
  frame_id: map
  seq: 26858
  stamp:
    nsecs: 126786822
    secs: 1693405732
temperature: 25.003677343355765
variance: 0.07689689847509351
---
header:
  frame_id: map
  seq: 26859
  stamp:
    nsecs: 157076164
    secs: 1693405732
temperature: 25.670926055476958
variance: 0.0615720204808388
---
header:
  frame_id: map
  seq: 26859
  stamp:
    nsecs: 157076264
    secs: 1693405732
temperature: 25.670926055476958
variance: 0.0615720204808388
---
header:
  frame_id: map
  seq: 26859
  stamp:
    nsecs: 157077364
    secs: 1693405732
temperature: 25.670926055476958
variance: 0.0615720204808388
---
header:
  frame_id: map
  seq: 26860
  stamp:
    nsecs: 196147980
    secs: 1693405732
temperature: 25.80549229745885
variance: 0.07838147995234855
---
header:
  frame_id: map
  seq: 26860
  stamp:
    nsecs: 196148080
    secs: 1693405732
temperature: 25.80549229745885
variance: 0.07838147995234855
---
header:
  frame_id: map
  seq: 26860
  stamp:
    nsecs: 196149180
    secs: 1693405732
temperature: 25.80549229745885
variance: 0.07838147995234855
---
header:
  frame_id: map
  seq: 26861
  stamp:
    nsecs: 226445080
    secs: 1693405732
temperature: 25.849322761019508
variance: 0.09293440032299895
---
header:
  frame_id: map
  seq: 26861
  stamp:
    nsecs: 226445180
    secs: 1693405732
temperature: 25.849322761019508
variance: 0.09293440032299895
---
header:
  frame_id: map
  seq: 26861
  stamp:
    nsecs: 226446280
    secs: 1693405732
temperature: 25.849322761019508
variance: 0.09293440032299895
---
header:
  frame_id: map
  seq: 26862
  stamp:
    nsecs: 256745852
    secs: 1693405732
temperature: 25.457698528243217
variance: 0.09524120258926308
---
header:
  frame_id: map
  seq: 26862
  stamp:
    nsecs: 256745952
    secs: 1693405732
temperature: 25.457698528243217
variance: 0.09524120258926308
---
header:
  frame_id: map
  seq: 26862
  stamp:
    nsecs: 256747052
    secs: 1693405732
temperature: 25.457698528243217
variance: 0.09524120258926308
---
header:
  frame_id: map
  seq: 26863
  stamp:
    nsecs: 296823264
    secs: 1693405732
temperature: 25.742205744393246
variance: 0.018926199387273513
---
header:
  frame_id: map
  seq: 26863
  stamp:
    nsecs: 296823364
    secs: 1693405732
temperature: 25.742205744393246
variance: 0.018926199387273513
---
header:
  frame_id: map
  seq: 26863
  stamp:
    nsecs: 296824464
    secs: 1693405732
temperature: 25.742205744393246
variance: 0.018926199387273513
---
header:
  frame_id: map
  seq: 26864
  stamp:
    nsecs: 327124309
    secs: 1693405732
temperature: 26.119272638487157
variance: 0.044954621558295306
---
header:
  frame_id: map
  seq: 26864
  stamp:
    nsecs: 327124409
    secs: 1693405732
temperature: 26.119272638487157
variance: 0.044954621558295306
---
header:
  frame_id: map
  seq: 26864
  stamp:
    nsecs: 327125509
    secs: 1693405732
temperature: 26.119272638487157
variance: 0.044954621558295306
---
header:
  frame_id: map
  seq: 26865
  stamp:
    nsecs: 356383270
    secs: 1693405732
temperature: 25.966008566912674
variance: 0.04976371540055161
---
header:
  frame_id: map
  seq: 26865
  stamp:
    nsecs: 356383370
    secs: 1693405732
temperature: 25.966008566912674
variance: 0.04976371540055161
---
header:
  frame_id: map
  seq: 26865
  stamp:
    nsecs: 356384470
    secs: 1693405732
temperature: 25.966008566912674
variance: 0.04976371540055161
---
header:
  frame_id: map
  seq: 26866
  stamp:
    nsecs: 396402819
    secs: 1693405732
temperature: 25.75027941157654
variance: 0.05044498415141484
---
header:
  frame_id: map
  seq: 26866
  stamp:
    nsecs: 396402919
    secs: 1693405732
temperature: 25.75027941157654
variance: 0.05044498415141484
---
header:
  frame_id: map
  seq: 26866
  stamp:
    nsecs: 396404019
    secs: 1693405732
temperature: 25.75027941157654
variance: 0.05044498415141484
---
header:
  frame_id: map
  seq: 26867
  stamp:
    nsecs: 426682090
    secs: 1693405732
temperature: 25.662338097039807
variance: 0.02854538884125391
---
header:
  frame_id: map
  seq: 26867
  stamp:
    nsecs: 426682190
    secs: 1693405732
temperature: 25.662338097039807
variance: 0.02854538884125391
---
header:
  frame_id: map
  seq: 26867
  stamp:
    nsecs: 426683290
    secs: 1693405732
temperature: 25.662338097039807
variance: 0.02854538884125391
---
header:
  frame_id: map
  seq: 26868
  stamp:
    nsecs: 456945906
    secs: 1693405732
temperature: 25.84903707668631
variance: 0.025849708946122835
---
header:
  frame_id: map
  seq: 26868
  stamp:
    nsecs: 456946006
    secs: 1693405732
temperature: 25.84903707668631
variance: 0.025849708946122835
---
header:
  frame_id: map
  seq: 26868
  stamp:
    nsecs: 456947106
    secs: 1693405732
temperature: 25.84903707668631
variance: 0.025849708946122835
---
header:
  frame_id: map
  seq: 26869
  stamp:
    nsecs: 496981134
    secs: 1693405732
temperature: 25.731649365652213
variance: 0.01114542611868492
---
header:
  frame_id: map
  seq: 26869
  stamp:
    nsecs: 496981234
    secs: 1693405732
temperature: 25.731649365652213
variance: 0.01114542611868492
---
header:
  frame_id: map
  seq: 26869
  stamp:
    nsecs: 496982334
    secs: 1693405732
temperature: 25.731649365652213
variance: 0.01114542611868492
---
header:
  frame_id: map
  seq: 26870
  stamp:
    nsecs: 526262207
    secs: 1693405732
temperature: 26.307746396014004
variance: 0.05363590418573483
---
header:
  frame_id: map
  seq: 26870
  stamp:
    nsecs: 526262307
    secs: 1693405732
temperature: 26.307746396014004
variance: 0.05363590418573483
---
header:
  frame_id: map
  seq: 26870
  stamp:
    nsecs: 526263407
    secs: 1693405732
temperature: 26.307746396014004
variance: 0.05363590418573483
---
header:
  frame_id: map
  seq: 26871
  stamp:
    nsecs: 556528963
    secs: 1693405732
temperature: 25.67863993050756
variance: 0.05760720873722728
---
header:
  frame_id: map
  seq: 26871
  stamp:
    nsecs: 556529063
    secs: 1693405732
temperature: 25.67863993050756
variance: 0.05760720873722728
---
header:
  frame_id: map
  seq: 26871
  stamp:
    nsecs: 556530163
    secs: 1693405732
temperature: 25.67863993050756
variance: 0.05760720873722728
---
header:
  frame_id: map
  seq: 26872
  stamp:
    nsecs: 596561959
    secs: 1693405732
temperature: 26.10828927610478
variance: 0.05668612252869729
---
header:
  frame_id: map
  seq: 26872
  stamp:
    nsecs: 596562059
    secs: 1693405732
temperature: 26.10828927610478
variance: 0.05668612252869729
---
header:
  frame_id: map
  seq: 26872
  stamp:
    nsecs: 596563159
    secs: 1693405732
temperature: 26.10828927610478
variance: 0.05668612252869729
---
header:
  frame_id: map
  seq: 26873
  stamp:
    nsecs: 626831643
    secs: 1693405732
temperature: 26.336959241627397
variance: 0.07798559053502765
---
header:
  frame_id: map
  seq: 26873
  stamp:
    nsecs: 626831743
    secs: 1693405732
temperature: 26.336959241627397
variance: 0.07798559053502765
---
header:
  frame_id: map
  seq: 26873
  stamp:
    nsecs: 626832843
    secs: 1693405732
temperature: 26.336959241627397
variance: 0.07798559053502765
---
header:
  frame_id: map
  seq: 26874
  stamp:
    nsecs: 657119412
    secs: 1693405732
temperature: 25.64035528528961
variance: 0.09031120828599733
---
header:
  frame_id: map
  seq: 26874
  stamp:
    nsecs: 657119512
    secs: 1693405732
temperature: 25.64035528528961
variance: 0.09031120828599733
---
header:
  frame_id: map
  seq: 26874
  stamp:
    nsecs: 657120612
    secs: 1693405732
temperature: 25.64035528528961
variance: 0.09031120828599733
---
header:
  frame_id: map
  seq: 26875
  stamp:
    nsecs: 696209350
    secs: 1693405732
temperature: 26.44196704236483
variance: 0.10894300052769038
---
header:
  frame_id: map
  seq: 26875
  stamp:
    nsecs: 696209450
    secs: 1693405732
temperature: 26.44196704236483
variance: 0.10894300052769038
---
header:
  frame_id: map
  seq: 26875
  stamp:
    nsecs: 696210550
    secs: 1693405732
temperature: 26.44196704236483
variance: 0.10894300052769038
---
header:
  frame_id: map
  seq: 26876
  stamp:
    nsecs: 726524767
    secs: 1693405732
temperature: 26.382087503498898
variance: 0.08608849663676775
---
header:
  frame_id: map
  seq: 26876
  stamp:
    nsecs: 726524867
    secs: 1693405732
temperature: 26.382087503498898
variance: 0.08608849663676775
---
header:
  frame_id: map
  seq: 26876
  stamp:
    nsecs: 726525967
    secs: 1693405732
temperature: 26.382087503498898
variance: 0.08608849663676775
---
header:
  frame_id: map
  seq: 26877
  stamp:
    nsecs: 756784111
    secs: 1693405732
temperature: 26.36550642645568
variance: 0.08909736796814426
---
header:
  frame_id: map
  seq: 26877
  stamp:
    nsecs: 756784211
    secs: 1693405732
temperature: 26.36550642645568
variance: 0.08909736796814426
---
header:
  frame_id: map
  seq: 26877
  stamp:
    nsecs: 756785311
    secs: 1693405732
temperature: 26.36550642645568
variance: 0.08909736796814426
---
header:
  frame_id: map
  seq: 26878
  stamp:
    nsecs: 796810201
    secs: 1693405732
temperature: 26.102292725849317
variance: 0.08818521589197126
---
header:
  frame_id: map
  seq: 26878
  stamp:
    nsecs: 796810301
    secs: 1693405732
temperature: 26.102292725849317
variance: 0.08818521589197126
---
header:
  frame_id: map
  seq: 26878
  stamp:
    nsecs: 796811401
    secs: 1693405732
temperature: 26.102292725849317
variance: 0.08818521589197126
---
header:
  frame_id: map
  seq: 26879
  stamp:
    nsecs: 827126372
    secs: 1693405732
temperature: 26.402606798156476
variance: 0.0146474871218602
---
header:
  frame_id: map
  seq: 26879
  stamp:
    nsecs: 827126472
    secs: 1693405732
temperature: 26.402606798156476
variance: 0.0146474871218602
---
header:
  frame_id: map
  seq: 26879
  stamp:
    nsecs: 827127572
    secs: 1693405732
temperature: 26.402606798156476
variance: 0.0146474871218602
---
header:
  frame_id: map
  seq: 26880
  stamp:
    nsecs: 856423631
    secs: 1693405732
temperature: 26.08171227633892
variance: 0.02055955074914211
---
header:
  frame_id: map
  seq: 26880
  stamp:
    nsecs: 856423731
    secs: 1693405732
temperature: 26.08171227633892
variance: 0.02055955074914211
---
header:
  frame_id: map
  seq: 26880
  stamp:
    nsecs: 856424831
    secs: 1693405732
temperature: 26.08171227633892
variance: 0.02055955074914211
---
header:
  frame_id: map
  seq: 26881
  stamp:
    nsecs: 896470638
    secs: 1693405732
temperature: 26.643871588753473
variance: 0.0435923608203944
---
header:
  frame_id: map
  seq: 26881
  stamp:
    nsecs: 896470738
    secs: 1693405732
temperature: 26.643871588753473
variance: 0.0435923608203944
---
header:
  frame_id: map
  seq: 26881
  stamp:
    nsecs: 896471838
    secs: 1693405732
temperature: 26.643871588753473
variance: 0.0435923608203944
---
header:
  frame_id: map
  seq: 26882
  stamp:
    nsecs: 926784953
    secs: 1693405732
temperature: 26.27443055700513
variance: 0.04323249763495964
---
header:
  frame_id: map
  seq: 26882
  stamp:
    nsecs: 926785053
    secs: 1693405732
temperature: 26.27443055700513
variance: 0.04323249763495964
---
header:
  frame_id: map
  seq: 26882
  stamp:
    nsecs: 926786153
    secs: 1693405732
temperature: 26.27443055700513
variance: 0.04323249763495964
---
header:
  frame_id: map
  seq: 26883
  stamp:
    nsecs: 957100867
    secs: 1693405732
temperature: 26.659140604770933
variance: 0.04858917113602586
---
header:
  frame_id: map
  seq: 26883
  stamp:
    nsecs: 957100967
    secs: 1693405732
temperature: 26.659140604770933
variance: 0.04858917113602586
---
header:
  frame_id: map
  seq: 26883
  stamp:
    nsecs: 957102067
    secs: 1693405732
temperature: 26.659140604770933
variance: 0.04858917113602586
---
header:
  frame_id: map
  seq: 26884
  stamp:
    nsecs: 997162338
    secs: 1693405732
temperature: 25.948307410081796
variance: 0.08338220259911806
---
header:
  frame_id: map
  seq: 26884
  stamp:
    nsecs: 997162438
    secs: 1693405732
temperature: 25.948307410081796
variance: 0.08338220259911806
---
header:
  frame_id: map
  seq: 26884
  stamp:
    nsecs: 997163538
    secs: 1693405732
temperature: 25.948307410081796
variance: 0.08338220259911806
---
header:
  frame_id: map
  seq: 26885
  stamp:
    nsecs: 26460051
    secs: 1693405733
temperature: 26.54232810511174
variance: 0.07315028901903424
---
header:
  frame_id: map
  seq: 26885
  stamp:
    nsecs: 26460151
    secs: 1693405733
temperature: 26.54232810511174
variance: 0.07315028901903424
---
header:
  frame_id: map
  seq: 26885
  stamp:
    nsecs: 26461251
    secs: 1693405733
temperature: 26.54232810511174
variance: 0.07315028901903424
---
header:
  frame_id: map
  seq: 26886
  stamp:
    nsecs: 56742371
    secs: 1693405733
temperature: 26.217988693282507
variance: 0.06294566170120072
---
header:
  frame_id: map
  seq: 26886
  stamp:
    nsecs: 56742471
    secs: 1693405733
temperature: 26.217988693282507
variance: 0.06294566170120072
---
header:
  frame_id: map
  seq: 26886
  stamp:
    nsecs: 56743571
    secs: 1693405733
temperature: 26.217988693282507
variance: 0.06294566170120072
---
header:
  frame_id: map
  seq: 26887
  stamp:
    nsecs: 96828394
    secs: 1693405733
temperature: 26.42083302481041
variance: 0.0632122588427432
---
header:
  frame_id: map
  seq: 26887
  stamp:
    nsecs: 96828494
    secs: 1693405733
temperature: 26.42083302481041
variance: 0.0632122588427432
---
header:
  frame_id: map
  seq: 26887
  stamp:
    nsecs: 96829594
    secs: 1693405733
temperature: 26.42083302481041
variance: 0.0632122588427432
---
header:
  frame_id: map
  seq: 26888
  stamp:
    nsecs: 127092633
    secs: 1693405733
temperature: 26.600716043627067
variance: 0.05671425081169168
---
header:
  frame_id: map
  seq: 26888
  stamp:
    nsecs: 127092733
    secs: 1693405733
temperature: 26.600716043627067
variance: 0.05671425081169168
---
header:
  frame_id: map
  seq: 26888
  stamp:
    nsecs: 127093833
    secs: 1693405733
temperature: 26.600716043627067
variance: 0.05671425081169168
---
header:
  frame_id: map
  seq: 26889
  stamp:
    nsecs: 157365836
    secs: 1693405733
temperature: 26.872545215057006
variance: 0.04635091156465556
---
header:
  frame_id: map
  seq: 26889
  stamp:
    nsecs: 157365936
    secs: 1693405733
temperature: 26.872545215057006
variance: 0.04635091156465556
---
header:
  frame_id: map
  seq: 26889
  stamp:
    nsecs: 157367036
    secs: 1693405733
temperature: 26.872545215057006
variance: 0.04635091156465556
---
header:
  frame_id: map
  seq: 26890
  stamp:
    nsecs: 196412935
    secs: 1693405733
temperature: 27.210653983960764
variance: 0.12087626187788877
---
header:
  frame_id: map
  seq: 26890
  stamp:
    nsecs: 196413035
    secs: 1693405733
temperature: 27.210653983960764
variance: 0.12087626187788877
---
header:
  frame_id: map
  seq: 26890
  stamp:
    nsecs: 196414135
    secs: 1693405733
temperature: 27.210653983960764
variance: 0.12087626187788877
---
header:
  frame_id: map
  seq: 26891
  stamp:
    nsecs: 226686848
    secs: 1693405733
temperature: 27.271972038066945
variance: 0.1103510320222213
---
header:
  frame_id: map
  seq: 26891
  stamp:
    nsecs: 226686948
    secs: 1693405733
temperature: 27.271972038066945
variance: 0.1103510320222213
---
header:
  frame_id: map
  seq: 26891
  stamp:
    nsecs: 226688048
    secs: 1693405733
temperature: 27.271972038066945
variance: 0.1103510320222213
---
header:
  frame_id: map
  seq: 26892
  stamp:
    nsecs: 256972272
    secs: 1693405733
temperature: 26.945497251563886
variance: 0.05900836759254195
---
header:
  frame_id: map
  seq: 26892
  stamp:
    nsecs: 256972372
    secs: 1693405733
temperature: 26.945497251563886
variance: 0.05900836759254195
---
header:
  frame_id: map
  seq: 26892
  stamp:
    nsecs: 256973472
    secs: 1693405733
temperature: 26.945497251563886
variance: 0.05900836759254195
---
header:
  frame_id: map
  seq: 26893
  stamp:
    nsecs: 296989036
    secs: 1693405733
temperature: 27.09406942408786
variance: 0.02304892296773982
---
header:
  frame_id: map
  seq: 26893
  stamp:
    nsecs: 296989136
    secs: 1693405733
temperature: 27.09406942408786
variance: 0.02304892296773982
---
header:
  frame_id: map
  seq: 26893
  stamp:
    nsecs: 296990236
    secs: 1693405733
temperature: 27.09406942408786
variance: 0.02304892296773982
---
header:
  frame_id: map
  seq: 26894
  stamp:
    nsecs: 326285861
    secs: 1693405733
temperature: 26.8679916727584
variance: 0.02342818529169399
---
header:
  frame_id: map
  seq: 26894
  stamp:
    nsecs: 326285961
    secs: 1693405733
temperature: 26.8679916727584
variance: 0.02342818529169399
---
header:
  frame_id: map
  seq: 26894
  stamp:
    nsecs: 326287061
    secs: 1693405733
temperature: 26.8679916727584
variance: 0.02342818529169399
---
header:
  frame_id: map
  seq: 26895
  stamp:
    nsecs: 356576127
    secs: 1693405733
temperature: 26.71984491995418
variance: 0.03593527943420887
---
header:
  frame_id: map
  seq: 26895
  stamp:
    nsecs: 356576227
    secs: 1693405733
temperature: 26.71984491995418
variance: 0.03593527943420887
---
header:
  frame_id: map
  seq: 26895
  stamp:
    nsecs: 356577327
    secs: 1693405733
temperature: 26.71984491995418
variance: 0.03593527943420887
---
header:
  frame_id: map
  seq: 26896
  stamp:
    nsecs: 396615212
    secs: 1693405733
temperature: 26.7896442738856
variance: 0.016803098276332563
---
header:
  frame_id: map
  seq: 26896
  stamp:
    nsecs: 396615312
    secs: 1693405733
temperature: 26.7896442738856
variance: 0.016803098276332563
---
header:
  frame_id: map
  seq: 26896
  stamp:
    nsecs: 396616412
    secs: 1693405733
temperature: 26.7896442738856
variance: 0.016803098276332563
---
header:
  frame_id: map
  seq: 26897
  stamp:
    nsecs: 426892143
    secs: 1693405733
temperature: 27.468659064090343
variance: 0.07358759789934549
---
header:
  frame_id: map
  seq: 26897
  stamp:
    nsecs: 426892243
    secs: 1693405733
temperature: 27.468659064090343
variance: 0.07358759789934549
---
header:
  frame_id: map
  seq: 26897
  stamp:
    nsecs: 426893343
    secs: 1693405733
temperature: 27.468659064090343
variance: 0.07358759789934549
---
header:
  frame_id: map
  seq: 26898
  stamp:
    nsecs: 457173775
    secs: 1693405733
temperature: 26.782250047380618
variance: 0.07592003147712192
---
header:
  frame_id: map
  seq: 26898
  stamp:
    nsecs: 457173875
    secs: 1693405733
temperature: 26.782250047380618
variance: 0.07592003147712192
---
header:
  frame_id: map
  seq: 26898
  stamp:
    nsecs: 457174975
    secs: 1693405733
temperature: 26.782250047380618
variance: 0.07592003147712192
---
header:
  frame_id: map
  seq: 26899
  stamp:
    nsecs: 497205251
    secs: 1693405733
temperature: 27.56100697807935
variance: 0.1367722637639776
---
header:
  frame_id: map
  seq: 26899
  stamp:
    nsecs: 497205351
    secs: 1693405733
temperature: 27.56100697807935
variance: 0.1367722637639776
---
header:
  frame_id: map
  seq: 26899
  stamp:
    nsecs: 497206451
    secs: 1693405733
temperature: 27.56100697807935
variance: 0.1367722637639776
---
header:
  frame_id: map
  seq: 26900
  stamp:
    nsecs: 526471131
    secs: 1693405733
temperature: 26.920765462200144
variance: 0.11554959590754019
---
header:
  frame_id: map
  seq: 26900
  stamp:
    nsecs: 526471231
    secs: 1693405733
temperature: 26.920765462200144
variance: 0.11554959590754019
---
header:
  frame_id: map
  seq: 26900
  stamp:
    nsecs: 526472331
    secs: 1693405733
temperature: 26.920765462200144
variance: 0.11554959590754019
---
header:
  frame_id: map
  seq: 26901
  stamp:
    nsecs: 556716315
    secs: 1693405733
temperature: 27.498040754589006
variance: 0.10663448316422863
---
header:
  frame_id: map
  seq: 26901
  stamp:
    nsecs: 556716415
    secs: 1693405733
temperature: 27.498040754589006
variance: 0.10663448316422863
---
header:
  frame_id: map
  seq: 26901
  stamp:
    nsecs: 556717515
    secs: 1693405733
temperature: 27.498040754589006
variance: 0.10663448316422863
---
header:
  frame_id: map
  seq: 26902
  stamp:
    nsecs: 596774407
    secs: 1693405733
temperature: 27.09615544834385
variance: 0.09568091652019937
---
header:
  frame_id: map
  seq: 26902
  stamp:
    nsecs: 596774507
    secs: 1693405733
temperature: 27.09615544834385
variance: 0.09568091652019937
---
header:
  frame_id: map
  seq: 26902
  stamp:
    nsecs: 596775607
    secs: 1693405733
temperature: 27.09615544834385
variance: 0.09568091652019937
---
header:
  frame_id: map
  seq: 26903
  stamp:
    nsecs: 627035511
    secs: 1693405733
temperature: 27.57653113544228
variance: 0.07290689027110389
---
header:
  frame_id: map
  seq: 26903
  stamp:
    nsecs: 627035611
    secs: 1693405733
temperature: 27.57653113544228
variance: 0.07290689027110389
---
header:
  frame_id: map
  seq: 26903
  stamp:
    nsecs: 627036711
    secs: 1693405733
temperature: 27.57653113544228
variance: 0.07290689027110389
---
header:
  frame_id: map
  seq: 26904
  stamp:
    nsecs: 656327832
    secs: 1693405733
temperature: 27.453067506087812
variance: 0.06481871649626147
---
header:
  frame_id: map
  seq: 26904
  stamp:
    nsecs: 656327932
    secs: 1693405733
temperature: 27.453067506087812
variance: 0.06481871649626147
---
header:
  frame_id: map
  seq: 26904
  stamp:
    nsecs: 656329032
    secs: 1693405733
temperature: 27.453067506087812
variance: 0.06481871649626147
---
header:
  frame_id: map
  seq: 26905
  stamp:
    nsecs: 696371090
    secs: 1693405733
temperature: 27.491014750432115
variance: 0.02831206785893108
---
header:
  frame_id: map
  seq: 26905
  stamp:
    nsecs: 696371190
    secs: 1693405733
temperature: 27.491014750432115
variance: 0.02831206785893108
---
header:
  frame_id: map
  seq: 26905
  stamp:
    nsecs: 696372290
    secs: 1693405733
temperature: 27.491014750432115
variance: 0.02831206785893108
---
header:
  frame_id: map
  seq: 26906
  stamp:
    nsecs: 726636033
    secs: 1693405733
temperature: 27.534646365429666
variance: 0.029625785833617635
---
header:
  frame_id: map
  seq: 26906
  stamp:
    nsecs: 726636133
    secs: 1693405733
temperature: 27.534646365429666
variance: 0.029625785833617635
---
header:
  frame_id: map
  seq: 26906
  stamp:
    nsecs: 726637233
    secs: 1693405733
temperature: 27.534646365429666
variance: 0.029625785833617635
---
header:
  frame_id: map
  seq: 26907
  stamp:
    nsecs: 756913986
    secs: 1693405733
temperature: 27.646765289486808
variance: 0.004543601061813051
---
header:
  frame_id: map
  seq: 26907
  stamp:
    nsecs: 756914086
    secs: 1693405733
temperature: 27.646765289486808
variance: 0.004543601061813051
---
header:
  frame_id: map
  seq: 26907
  stamp:
    nsecs: 756915186
    secs: 1693405733
temperature: 27.646765289486808
variance: 0.004543601061813051
---
header:
  frame_id: map
  seq: 26908
  stamp:
    nsecs: 787210704
    secs: 1693405733
temperature: 27.408377057917473
variance: 0.006637825906622213
---
header:
  frame_id: map
  seq: 26908
  stamp:
    nsecs: 787210804
    secs: 1693405733
temperature: 27.408377057917473
variance: 0.006637825906622213
---
header:
  frame_id: map
  seq: 26908
  stamp:
    nsecs: 787211904
    secs: 1693405733
temperature: 27.408377057917473
variance: 0.006637825906622213
---
header:
  frame_id: map
  seq: 26909
  stamp:
    nsecs: 826261204
    secs: 1693405733
temperature: 27.77418039094324
variance: 0.0162376196978435
---
header:
  frame_id: map
  seq: 26909
  stamp:
    nsecs: 826261304
    secs: 1693405733
temperature: 27.77418039094324
variance: 0.0162376196978435
---
header:
  frame_id: map
  seq: 26909
  stamp:
    nsecs: 826262404
    secs: 1693405733
temperature: 27.77418039094324
variance: 0.0162376196978435
---
header:
  frame_id: map
  seq: 26910
  stamp:
    nsecs: 856546097
    secs: 1693405733
temperature: 27.777383535410817
variance: 0.020197011057519733
---
header:
  frame_id: map
  seq: 26910
  stamp:
    nsecs: 856546197
    secs: 1693405733
temperature: 27.777383535410817
variance: 0.020197011057519733
---
header:
  frame_id: map
  seq: 26910
  stamp:
    nsecs: 856547297
    secs: 1693405733
temperature: 27.777383535410817
variance: 0.020197011057519733
---
header:
  frame_id: map
  seq: 26911
  stamp:
    nsecs: 896621800
    secs: 1693405733
temperature: 28.20335649604331
variance: 0.066701758914209
---
header:
  frame_id: map
  seq: 26911
  stamp:
    nsecs: 896621900
    secs: 1693405733
temperature: 28.20335649604331
variance: 0.066701758914209
---
header:
  frame_id: map
  seq: 26911
  stamp:
    nsecs: 896623000
    secs: 1693405733
temperature: 28.20335649604331
variance: 0.066701758914209
---
header:
  frame_id: map
  seq: 26912
  stamp:
    nsecs: 926920497
    secs: 1693405733
temperature: 28.1158159420353
variance: 0.08028039941690217
---
header:
  frame_id: map
  seq: 26912
  stamp:
    nsecs: 926920597
    secs: 1693405733
temperature: 28.1158159420353
variance: 0.08028039941690217
---
header:
  frame_id: map
  seq: 26912
  stamp:
    nsecs: 926921697
    secs: 1693405733
temperature: 28.1158159420353
variance: 0.08028039941690217
---
header:
  frame_id: map
  seq: 26913
  stamp:
    nsecs: 957219392
    secs: 1693405733
temperature: 27.733753504238333
variance: 0.03898426535237247
---
header:
  frame_id: map
  seq: 26913
  stamp:
    nsecs: 957219492
    secs: 1693405733
temperature: 27.733753504238333
variance: 0.03898426535237247
---
header:
  frame_id: map
  seq: 26913
  stamp:
    nsecs: 957220592
    secs: 1693405733
temperature: 27.733753504238333
variance: 0.03898426535237247
---
header:
  frame_id: map
  seq: 26914
