header:
  frame_id: map
  seq: 26791
  stamp:
    nsecs: 897183740
    secs: 1693405729
temperature: 25.42161570825349
variance: 0.0765743056326815
---
header:
  frame_id: map
  seq: 26792
  stamp:
    nsecs: 926482782
    secs: 1693405729
temperature: 24.65081636740299
variance: 0.07427622624943167
---
header:
  frame_id: map
  seq: 26793
  stamp:
    nsecs: 956788267
    secs: 1693405729
temperature: 24.885451355438168
variance: 0.07427622624943167
---
header:
  frame_id: map
  seq: 26794
  stamp:
    nsecs: 996851658
    secs: 1693405729
temperature: 24.74331532854867
variance: 0.07427622624943167
---
header:
  frame_id: map
  seq: 26795
  stamp:
    nsecs: 27106209
    secs: 1693405730
temperature: 25.06224972326271
variance: 0.07427622624943167
---
header:
  frame_id: map
  seq: 26796
  stamp:
    nsecs: 56398921
    secs: 1693405730
temperature: 25.093354985152477
variance: 0.029945045953392268
---
header:
  frame_id: map
  seq: 26797
  stamp:
    nsecs: 96438908
    secs: 1693405730
temperature: 25.059674834696324
variance: 0.018059072773542816
---
header:
  frame_id: map
  seq: 26798
  stamp:
    nsecs: 127676335
    secs: 1693405730
temperature: 24.795085287719523
variance: 0.022378726857112417
---
header:
  frame_id: map
  seq: 26799
  stamp:
    nsecs: 156956761
    secs: 1693405730
temperature: 24.745965431391244
variance: 0.022159976066126203
---
header:
  frame_id: map
  seq: 26800
  stamp:
    nsecs: 197025844
    secs: 1693405730
temperature: 25.32040148766879
variance: 0.044283001597480054
---
header:
  frame_id: map
  seq: 26801
  stamp:
    nsecs: 227253113
    secs: 1693405730
temperature: 25.003621946670325
variance: 0.04232447521886255
---
header:
  frame_id: map
  seq: 26802
  stamp:
    nsecs: 256515094
    secs: 1693405730
temperature: 24.783288752316228
variance: 0.04628557376393794
---
header:
  frame_id: map
  seq: 26803
  stamp:
    nsecs: 296568330
    secs: 1693405730
temperature: 25.138965985000482
variance: 0.04669341427347312
---
header:
  frame_id: map
  seq: 26804
  stamp:
    nsecs: 326851381
    secs: 1693405730
temperature: 25.017172438162763
variance: 0.031071837905512857
---
header:
  frame_id: map
  seq: 26805
  stamp:
    nsecs: 357035196
    secs: 1693405730
temperature: 24.889502686716874
variance: 0.014637039577994532
---
header:
  frame_id: map
  seq: 26806
  stamp:
    nsecs: 396993528
    secs: 1693405730
temperature: 25.29180861226579
variance: 0.03220331381689038
---
header:
  frame_id: map
  seq: 26807
  stamp:
    nsecs: 426216884
    secs: 1693405730
temperature: 24.964371150947
variance: 0.02000372141056239
---
header:
  frame_id: map
  seq: 26808
  stamp:
    nsecs: 456427560
    secs: 1693405730
temperature: 25.231512196388138
variance: 0.02428380951293812
---
header:
  frame_id: map
  seq: 26809
  stamp:
    nsecs: 496456162
    secs: 1693405730
temperature: 25.41475475544319
variance: 0.03976279411387988
---
header:
  frame_id: map
  seq: 26810
  stamp:
    nsecs: 526744287
    secs: 1693405730
temperature: 25.47360702432034
variance: 0.03152798401566293
---
header:
  frame_id: map
  seq: 26811
  stamp:
    nsecs: 556028069
    secs: 1693405730
temperature: 25.55202590960021
variance: 0.044089691274325056
---
header:
  frame_id: map
  seq: 26812
  stamp:
    nsecs: 596069157
    secs: 1693405730
temperature: 25.12874929311995
variance: 0.024552901999847332
---
header:
  frame_id: map
  seq: 26813
  stamp:
    nsecs: 626358963
    secs: 1693405730
temperature: 25.57864385712395
variance: 0.025974062477455383
---
header:
  frame_id: map
  seq: 26814
  stamp:
    nsecs: 656700495
    secs: 1693405730
temperature: 25.57009478778817
variance: 0.028915245824031204
---
header:
  frame_id: map
  seq: 26815
  stamp:
    nsecs: 696806423
    secs: 1693405730
temperature: 24.9571093400624
variance: 0.06891617830951449
---
header:
  frame_id: map
  seq: 26816
  stamp:
    nsecs: 726123106
    secs: 1693405730
temperature: 25.68202203567568
variance: 0.08174418160062775
---
header:
  frame_id: map
  seq: 26817
  stamp:
    nsecs: 756417680
    secs: 1693405730
temperature: 25.095431392715334
variance: 0.08531455086125368
---
header:
  frame_id: map
  seq: 26818
  stamp:
    nsecs: 796488694
    secs: 1693405730
temperature: 24.701072742524047
variance: 0.1376335404253925
---
header:
  frame_id: map
  seq: 26819
  stamp:
    nsecs: 826796577
    secs: 1693405730
temperature: 24.92078408376587
variance: 0.1092652995432352
---
header:
  frame_id: map
  seq: 26820
  stamp:
    nsecs: 857115182
    secs: 1693405730
temperature: 25.491244317604075
variance: 0.13051947296888802
---
header:
  frame_id: map
  seq: 26821
  stamp:
    nsecs: 896238637
    secs: 1693405730
temperature: 25.348270037574096
variance: 0.08106939893783872
---
header:
  frame_id: map
  seq: 26822
  stamp:
    nsecs: 926545981
    secs: 1693405730
temperature: 25.517041931796896
variance: 0.10682391609831059
---
header:
  frame_id: map
  seq: 26823
  stamp:
    nsecs: 956860331
    secs: 1693405730
temperature: 25.349281314452277
variance: 0.045807666909716487
---
header:
  frame_id: map
  seq: 26824
  stamp:
    nsecs: 996930131
    secs: 1693405730
temperature: 24.962883516264945
variance: 0.03927887883006921
---
header:
  frame_id: map
  seq: 26825
  stamp:
    nsecs: 27196316
    secs: 1693405731
temperature: 25.31439264923861
variance: 0.03314145908536416
---
header:
  frame_id: map
  seq: 26826
  stamp:
    nsecs: 56489864
    secs: 1693405731
temperature: 24.738379612509945
variance: 0.08048359888489637
---
header:
  frame_id: map
  seq: 26827
  stamp:
    nsecs: 96583384
    secs: 1693405731
temperature: 25.32071496034646
variance: 0.059899474664197525
---
header:
  frame_id: map
  seq: 26828
  stamp:
    nsecs: 126915784
    secs: 1693405731
temperature: 25.27492859310044
variance: 0.05447440819520105
---
header:
  frame_id: map
  seq: 26829
  stamp:
    nsecs: 157239420
    secs: 1693405731
temperature: 25.200679251899505
variance: 0.04836229153797661
---
header:
  frame_id: map
  seq: 26830
  stamp:
    nsecs: 197328550
    secs: 1693405731
temperature: 25.52592153672236
variance: 0.06775400691415669
---
header:
  frame_id: map
  seq: 26831
  stamp:
    nsecs: 226630906
    secs: 1693405731
temperature: 25.00117326300827
variance: 0.029004797417218627
---
header:
  frame_id: map
  seq: 26832
  stamp:
    nsecs: 256892113
    secs: 1693405731
temperature: 24.831187994521724
variance: 0.056375101265741
---
header:
  frame_id: map
  seq: 26833
  stamp:
    nsecs: 296965396
    secs: 1693405731
temperature: 25.48185173489645
variance: 0.0721773847459483
---
header:
  frame_id: map
  seq: 26834
  stamp:
    nsecs: 327271606
    secs: 1693405731
temperature: 25.137776272733
variance: 0.07299876419831748
---
header:
  frame_id: map
  seq: 26835
  stamp:
    nsecs: 356562794
    secs: 1693405731
temperature: 24.806698143476016
variance: 0.060728807629782534
---
header:
  frame_id: map
  seq: 26836
  stamp:
    nsecs: 396598224
    secs: 1693405731
temperature: 25.397552242202533
variance: 0.0778503774935075
---
header:
  frame_id: map
  seq: 26837
  stamp:
    nsecs: 426853446
    secs: 1693405731
temperature: 25.112898981299622
variance: 0.056762519765987826
---
header:
  frame_id: map
  seq: 26838
  stamp:
    nsecs: 457112788
    secs: 1693405731
temperature: 25.52613007495277
variance: 0.06229213340748476
---
header:
  frame_id: map
  seq: 26839
  stamp:
    nsecs: 497118365
    secs: 1693405731
temperature: 24.670780307515695
variance: 0.10810130989668273
---
header:
  frame_id: map
  seq: 26840
  stamp:
    nsecs: 526411452
    secs: 1693405731
temperature: 24.66274540043876
variance: 0.12846745052691466
---
header:
  frame_id: map
  seq: 26841
  stamp:
    nsecs: 556683274
    secs: 1693405731
temperature: 25.26047491913356
variance: 0.11373438468541268
---
header:
  frame_id: map
  seq: 26842
  stamp:
    nsecs: 596723566
    secs: 1693405731
temperature: 24.78909803734089
variance: 0.12192361272294686
---
header:
  frame_id: map
  seq: 26843
  stamp:
    nsecs: 626992975
    secs: 1693405731
temperature: 25.47678665097021
variance: 0.11157043555420057
---
header:
  frame_id: map
  seq: 26844
  stamp:
    nsecs: 657268972
    secs: 1693405731
temperature: 25.14903440546458
variance: 0.09054731965200373
---
header:
  frame_id: map
  seq: 26845
  stamp:
    nsecs: 697281527
    secs: 1693405731
temperature: 25.046994902636055
variance: 0.0519405915439804
---
header:
  frame_id: map
  seq: 26846
  stamp:
    nsecs: 726541483
    secs: 1693405731
temperature: 25.561629382585785
variance: 0.08042485538571335
---
header:
  frame_id: map
  seq: 26847
  stamp:
    nsecs: 756818021
    secs: 1693405731
temperature: 24.93960848510474
variance: 0.059027901251555034
---
header:
  frame_id: map
  seq: 26848
  stamp:
    nsecs: 796837876
    secs: 1693405731
temperature: 25.19701719239884
variance: 0.044472268240782535
---
header:
  frame_id: map
  seq: 26849
  stamp:
    nsecs: 827060540
    secs: 1693405731
temperature: 25.48254893018781
variance: 0.058290887833427875
---
header:
  frame_id: map
  seq: 26850
  stamp:
    nsecs: 857312349
    secs: 1693405731
temperature: 25.02465158235116
variance: 0.060145403115486294
---
header:
  frame_id: map
  seq: 26851
  stamp:
    nsecs: 896305808
    secs: 1693405731
temperature: 25.59598177126058
variance: 0.06473871904053112
---
header:
  frame_id: map
  seq: 26852
  stamp:
    nsecs: 926553006
    secs: 1693405731
temperature: 25.82231826028357
variance: 0.08053244583462628
---
header:
  frame_id: map
  seq: 26853
  stamp:
    nsecs: 956817495
    secs: 1693405731
temperature: 25.821012770847084
variance: 0.08605153109694726
---
header:
  frame_id: map
  seq: 26854
  stamp:
    nsecs: 996907388
    secs: 1693405731
temperature: 25.826971883439754
variance: 0.09583527129685065
---
header:
  frame_id: map
  seq: 26855
  stamp:
    nsecs: 26207605
    secs: 1693405732
temperature: 25.546973996828743
variance: 0.015479790081643751
---
header:
  frame_id: map
  seq: 26856
  stamp:
    nsecs: 57455685
    secs: 1693405732
temperature: 25.66868626478901
variance: 0.012641750754192401
---
header:
  frame_id: map
  seq: 26857
  stamp:
    nsecs: 96500813
    secs: 1693405732
temperature: 25.54886393452325
variance: 0.015294925517772257
---
header:
  frame_id: map
  seq: 26858
  stamp:
    nsecs: 126786822
    secs: 1693405732
temperature: 25.003677343355765
variance: 0.07689689847509351
---
header:
  frame_id: map
  seq: 26859
  stamp:
    nsecs: 157077364
    secs: 1693405732
temperature: 25.670926055476958
variance: 0.0615720204808388
---
header:
  frame_id: map
  seq: 26860
  stamp:
    nsecs: 196149180
    secs: 1693405732
temperature: 25.80549229745885
variance: 0.07838147995234855
---
header:
  frame_id: map
  seq: 26861
  stamp:
    nsecs: 226446280
    secs: 1693405732
temperature: 25.849322761019508
variance: 0.09293440032299895
---
header:
  frame_id: map
  seq: 26862
  stamp:
    nsecs: 256747052
    secs: 1693405732
temperature: 25.457698528243217
variance: 0.09524120258926308
---
header:
  frame_id: map
  seq: 26863
  stamp:
    nsecs: 296824464
    secs: 1693405732
temperature: 25.742205744393246
variance: 0.018926199387273513
---
header:
  frame_id: map
  seq: 26864
  stamp:
    nsecs: 327125509
    secs: 1693405732
temperature: 26.119272638487157
variance: 0.044954621558295306
---
header:
  frame_id: map
  seq: 26865
  stamp:
    nsecs: 356384470
    secs: 1693405732
temperature: 25.966008566912674
variance: 0.04976371540055161
---
header:
  frame_id: map
  seq: 26866
  stamp:
    nsecs: 396404019
    secs: 1693405732
temperature: 25.75027941157654
variance: 0.05044498415141484
---
header:
  frame_id: map
  seq: 26867
  stamp:
    nsecs: 426683290
    secs: 1693405732
temperature: 25.662338097039807
variance: 0.02854538884125391
---
header:
  frame_id: map
  seq: 26868
  stamp:
    nsecs: 456947106
    secs: 1693405732
temperature: 25.84903707668631
variance: 0.025849708946122835
---
header:
  frame_id: map
  seq: 26869
  stamp:
    nsecs: 496982334
    secs: 1693405732
temperature: 25.731649365652213
variance: 0.01114542611868492
---
header:
  frame_id: map
  seq: 26870
  stamp:
    nsecs: 526263407
    secs: 1693405732
temperature: 26.307746396014004
variance: 0.05363590418573483
---
header:
  frame_id: map
  seq: 26871
  stamp:
    nsecs: 556530163
    secs: 1693405732
temperature: 25.67863993050756
variance: 0.05760720873722728
---
header:
  frame_id: map
  seq: 26872
  stamp:
    nsecs: 596563159
    secs: 1693405732
temperature: 26.10828927610478
variance: 0.05668612252869729
---
header:
  frame_id: map
  seq: 26873
  stamp:
    nsecs: 626832843
    secs: 1693405732
temperature: 26.336959241627397
variance: 0.07798559053502765
---
header:
  frame_id: map
  seq: 26874
  stamp:
    nsecs: 657120612
    secs: 1693405732
temperature: 25.64035528528961
variance: 0.09031120828599733
---
header:
  frame_id: map
  seq: 26875
  stamp:
    nsecs: 696210550
    secs: 1693405732
temperature: 26.44196704236483
variance: 0.10894300052769038
---
header:
  frame_id: map
  seq: 26876
  stamp:
    nsecs: 726525967
    secs: 1693405732
temperature: 26.382087503498898
variance: 0.08608849663676775
---
header:
  frame_id: map
  seq: 26877
  stamp:
    nsecs: 756785311
    secs: 1693405732
temperature: 26.36550642645568
variance: 0.08909736796814426
---
header:
  frame_id: map
  seq: 26878
  stamp:
    nsecs: 796811401
    secs: 1693405732
temperature: 26.102292725849317
variance: 0.08818521589197126
---
header:
  frame_id: map
  seq: 26879
  stamp:
    nsecs: 827127572
    secs: 1693405732
temperature: 26.402606798156476
variance: 0.0146474871218602
---
header:
  frame_id: map
  seq: 26880
  stamp:
    nsecs: 856424831
    secs: 1693405732
temperature: 26.08171227633892
variance: 0.02055955074914211
---
header:
  frame_id: map
  seq: 26881
  stamp:
    nsecs: 896471838
    secs: 1693405732
temperature: 26.643871588753473
variance: 0.0435923608203944
---
header:
  frame_id: map
  seq: 26882
  stamp:
    nsecs: 926786153
    secs: 1693405732
temperature: 26.27443055700513
variance: 0.04323249763495964
---
header:
  frame_id: map
  seq: 26883
  stamp:
    nsecs: 957102067
    secs: 1693405732
temperature: 26.659140604770933
variance: 0.04858917113602586
---
header:
  frame_id: map
  seq: 26884
  stamp:
    nsecs: 997163538
    secs: 1693405732
temperature: 25.948307410081796
variance: 0.08338220259911806
---
header:
  frame_id: map
  seq: 26885
  stamp:
    nsecs: 26461251
    secs: 1693405733
temperature: 26.54232810511174
variance: 0.07315028901903424
---
header:
  frame_id: map
  seq: 26886
  stamp:
    nsecs: 56743571
    secs: 1693405733
temperature: 26.217988693282507
variance: 0.06294566170120072
---
header:
  frame_id: map
  seq: 26887
  stamp:
    nsecs: 96829594
    secs: 1693405733
temperature: 26.42083302481041
variance: 0.0632122588427432
---
header:
  frame_id: map
  seq: 26888
  stamp:
    nsecs: 127093833
    secs: 1693405733
temperature: 26.600716043627067
variance: 0.05671425081169168
---
header:
  frame_id: map
  seq: 26889
  stamp:
    nsecs: 157367036
    secs: 1693405733
temperature: 26.872545215057006
variance: 0.04635091156465556
---
header:
  frame_id: map
  seq: 26890
  stamp:
    nsecs: 196414135
    secs: 1693405733
temperature: 27.210653983960764
variance: 0.12087626187788877
---
header:
  frame_id: map
  seq: 26891
  stamp:
    nsecs: 226688048
    secs: 1693405733
temperature: 27.271972038066945
variance: 0.1103510320222213
---
header:
  frame_id: map
  seq: 26892
  stamp:
    nsecs: 256973472
    secs: 1693405733
temperature: 26.945497251563886
variance: 0.05900836759254195
---
header:
  frame_id: map
  seq: 26893
  stamp:
    nsecs: 296990236
    secs: 1693405733
temperature: 27.09406942408786
variance: 0.02304892296773982
---
header:
  frame_id: map
  seq: 26894
  stamp:
    nsecs: 326287061
    secs: 1693405733
temperature: 26.8679916727584
variance: 0.02342818529169399
---
header:
  frame_id: map
  seq: 26895
  stamp:
    nsecs: 356577327
    secs: 1693405733
temperature: 26.71984491995418
variance: 0.03593527943420887
---
header:
  frame_id: map
  seq: 26896
  stamp:
    nsecs: 396616412
    secs: 1693405733
temperature: 26.7896442738856
variance: 0.016803098276332563
---
header:
  frame_id: map
  seq: 26897
  stamp:
    nsecs: 426893343
    secs: 1693405733
temperature: 27.468659064090343
variance: 0.07358759789934549
---
header:
  frame_id: map
  seq: 26898
  stamp:
    nsecs: 457174975
    secs: 1693405733
temperature: 26.782250047380618
variance: 0.07592003147712192
---
header:
  frame_id: map
  seq: 26899
  stamp:
    nsecs: 497206451
    secs: 1693405733
temperature: 27.56100697807935
variance: 0.1367722637639776
---
header:
  frame_id: map
  seq: 26900
  stamp:
    nsecs: 526472331
    secs: 1693405733
temperature: 26.920765462200144
variance: 0.11554959590754019
---
header:
  frame_id: map
  seq: 26901
  stamp:
    nsecs: 556717515
    secs: 1693405733
temperature: 27.498040754589006
variance: 0.10663448316422863
---
header:
  frame_id: map
  seq: 26902
  stamp:
    nsecs: 596775607
    secs: 1693405733
temperature: 27.09615544834385
variance: 0.09568091652019937
---
header:
  frame_id: map
  seq: 26903
  stamp:
    nsecs: 627036711
    secs: 1693405733
temperature: 27.57653113544228
variance: 0.07290689027110389
---
header:
  frame_id: map
  seq: 26904
  stamp:
    nsecs: 656329032
    secs: 1693405733
temperature: 27.453067506087812
variance: 0.06481871649626147
---
header:
  frame_id: map
  seq: 26905
  stamp:
    nsecs: 696372290
    secs: 1693405733
temperature: 27.491014750432115
variance: 0.02831206785893108
---
header:
  frame_id: map
  seq: 26906
  stamp:
    nsecs: 726637233
    secs: 1693405733
temperature: 27.534646365429666
variance: 0.029625785833617635
---
header:
  frame_id: map
  seq: 26907
  stamp:
    nsecs: 756915186
    secs: 1693405733
temperature: 27.646765289486808
variance: 0.004543601061813051
---
header:
  frame_id: map
  seq: 26908
  stamp:
    nsecs: 787211904
    secs: 1693405733
temperature: 27.408377057917473
variance: 0.006637825906622213
---
header:
  frame_id: map
  seq: 26909
  stamp:
    nsecs: 826262404
    secs: 1693405733
temperature: 27.77418039094324
variance: 0.0162376196978435
---
header:
  frame_id: map
  seq: 26910
  stamp:
    nsecs: 856547297
    secs: 1693405733
temperature: 27.777383535410817
variance: 0.020197011057519733
---
header:
  frame_id: map
  seq: 26911
  stamp:
    nsecs: 896623000
    secs: 1693405733
temperature: 28.20335649604331
variance: 0.066701758914209
---
header:
  frame_id: map
  seq: 26912
  stamp:
    nsecs: 926921697
    secs: 1693405733
temperature: 28.1158159420353
variance: 0.08028039941690217
---
header:
  frame_id: map
  seq: 26913
  stamp:
    nsecs: 957220592
    secs: 1693405733
temperature: 27.733753504238333
variance: 0.03898426535237247
---
header:
  frame_id: map
  seq: 26914
  stamp:
    nsecs: 996321594
    secs: 1693405733
temperature: 27.51789733843112
variance: 0.06453371782310816
---
header:
  frame_id: map
  seq: 26915
  stamp:
    nsecs: 26618373
    secs: 1693405734
temperature: 27.46257226473252
variance: 0.09200822120901601
---
header:
  frame_id: map
  seq: 26916
  stamp:
    nsecs: 56917871
    secs: 1693405734
temperature: 27.55354815327121
variance: 0.05646265221188275
---
header:
  frame_id: map
  seq: 26917
  stamp:
    nsecs: 87176469
    secs: 1693405734
temperature: 28.016622065043553
variance: 0.040614607151340354
---
header:
  frame_id: map
  seq: 26918
  stamp:
    nsecs: 127225355
    secs: 1693405734
temperature: 27.91067672537487
variance: 0.05106327700252805
---
header:
  frame_id: map
  seq: 26919
  stamp:
    nsecs: 156509680
    secs: 1693405734
temperature: 27.956585018397814
variance: 0.051257896588616
---
header:
  frame_id: map
  seq: 26920
  stamp:
    nsecs: 196539536
    secs: 1693405734
temperature: 27.908301894126627
variance: 0.026450951550199525
---
header:
  frame_id: map
  seq: 26921
  stamp:
    nsecs: 226789590
    secs: 1693405734
temperature: 28.68717352982744
variance: 0.08895974979428564
---
header:
  frame_id: map
  seq: 26922
  stamp:
    nsecs: 257101904
    secs: 1693405734
temperature: 28.09068913043427
variance: 0.08748957912264493
---
header:
  frame_id: map
  seq: 26923
  stamp:
    nsecs: 297129605
    secs: 1693405734
temperature: 28.014250496121438
variance: 0.08091972805070045
---
header:
  frame_id: map
  seq: 26924
  stamp:
    nsecs: 326411536
    secs: 1693405734
temperature: 28.555495137212727
variance: 0.09643127305537032
---
header:
  frame_id: map
  seq: 26925
  stamp:
    nsecs: 356667725
    secs: 1693405734
temperature: 28.85734514520881
variance: 0.11037733342698317
---
header:
  frame_id: map
  seq: 26926
  stamp:
    nsecs: 396718989
    secs: 1693405734
temperature: 28.246166126895478
variance: 0.0980679558070471
---
header:
  frame_id: map
  seq: 26927
  stamp:
    nsecs: 426989514
    secs: 1693405734
temperature: 28.780152486839636
variance: 0.10184215152978612
---
header:
  frame_id: map
  seq: 26928
  stamp:
    nsecs: 456297488
    secs: 1693405734
temperature: 28.88286639456141
variance: 0.05702677488893433
---
header:
  frame_id: map
  seq: 26929
  stamp:
    nsecs: 496362089
    secs: 1693405734
temperature: 28.537456180998245
variance: 0.05786468803754161
---
header:
  frame_id: map
  seq: 26930
  stamp:
    nsecs: 526619321
    secs: 1693405734
temperature: 28.36976611026316
variance: 0.05756896855807629
---
header:
  frame_id: map
  seq: 26931
  stamp:
    nsecs: 556893746
    secs: 1693405734
temperature: 29.19987840876801
variance: 0.0821249920661743
---
header:
  frame_id: map
  seq: 26932
  stamp:
    nsecs: 587136943
    secs: 1693405734
temperature: 29.261086073614788
variance: 0.12415897330976955
---
header:
  frame_id: map
  seq: 26933
  stamp:
    nsecs: 627164789
    secs: 1693405734
temperature: 29.252233538723466
variance: 0.150812893320225
---
header:
  frame_id: map
  seq: 26934
  stamp:
    nsecs: 656434967
    secs: 1693405734
temperature: 29.093969914886245
variance: 0.11430060870317096
---
header:
  frame_id: map
  seq: 26935
  stamp:
    nsecs: 696460855
    secs: 1693405734
temperature: 29.185755276610195
variance: 0.003579028130276761
---
header:
  frame_id: map
  seq: 26936
  stamp:
    nsecs: 726709468
    secs: 1693405734
temperature: 28.65308703939147
variance: 0.051132988302981665
---
header:
  frame_id: map
  seq: 26937
  stamp:
    nsecs: 757015639
    secs: 1693405734
temperature: 28.705954208110384
variance: 0.06227849094881126
---
header:
  frame_id: map
  seq: 26938
  stamp:
    nsecs: 797076442
    secs: 1693405734
temperature: 28.96562988040648
variance: 0.04400554967183999
---
header:
  frame_id: map
  seq: 26939
  stamp:
    nsecs: 826403253
    secs: 1693405734
temperature: 28.70641975087584
variance: 0.04120424633745152
---
header:
  frame_id: map
  seq: 26940
  stamp:
    nsecs: 856673091
    secs: 1693405734
temperature: 28.88427239611401
variance: 0.014457542195223518
---
header:
  frame_id: map
  seq: 26941
  stamp:
    nsecs: 896732799
    secs: 1693405734
temperature: 28.894808645308064
variance: 0.011238103059515581
---
header:
  frame_id: map
  seq: 26942
  stamp:
    nsecs: 927059773
    secs: 1693405734
temperature: 29.39783939222802
variance: 0.05310858819016999
---
header:
  frame_id: map
  seq: 26943
  stamp:
    nsecs: 956368102
    secs: 1693405734
temperature: 29.023050272302754
variance: 0.053540481965192746
---
header:
  frame_id: map
  seq: 26944
  stamp:
    nsecs: 996433011
    secs: 1693405734
temperature: 29.085309712774343
variance: 0.03485327201930322
---
header:
  frame_id: map
  seq: 26945
  stamp:
    nsecs: 26711048
    secs: 1693405735
temperature: 29.075546856388637
variance: 0.027487376445454757
---
header:
  frame_id: map
  seq: 26946
  stamp:
    nsecs: 56991478
    secs: 1693405735
temperature: 29.017561252766754
variance: 0.020053415319730428
---
header:
  frame_id: map
  seq: 26947
  stamp:
    nsecs: 87228924
    secs: 1693405735
temperature: 29.75350149523137
variance: 0.07983918144231401
---
header:
  frame_id: map
  seq: 26948
  stamp:
    nsecs: 126278977
    secs: 1693405735
temperature: 29.446756235675924
variance: 0.08009997072714355
---
header:
  frame_id: map
  seq: 26949
  stamp:
    nsecs: 156561198
    secs: 1693405735
temperature: 29.854824242926746
variance: 0.1162303444609262
---
header:
  frame_id: map
  seq: 26950
  stamp:
    nsecs: 196618966
    secs: 1693405735
temperature: 29.563313869100647
variance: 0.08521141487412792
---
header:
  frame_id: map
  seq: 26951
  stamp:
    nsecs: 226919145
    secs: 1693405735
temperature: 29.378515589338036
variance: 0.03247621272843778
---
header:
  frame_id: map
  seq: 26952
  stamp:
    nsecs: 257160834
    secs: 1693405735
temperature: 29.63259808539976
variance: 0.0273616191051963
---
header:
  frame_id: map
  seq: 26953
  stamp:
    nsecs: 297203887
    secs: 1693405735
temperature: 29.440774684731554
variance: 0.02767466474431595
---
header:
  frame_id: map
  seq: 26954
  stamp:
    nsecs: 326491317
    secs: 1693405735
temperature: 29.824607759024637
variance: 0.02442660599197822
---
header:
  frame_id: map
  seq: 26955
  stamp:
    nsecs: 357715305
    secs: 1693405735
temperature: 29.71205303039208
variance: 0.027689796599242956
---
header:
  frame_id: map
  seq: 26956
  stamp:
    nsecs: 387001393
    secs: 1693405735
temperature: 30.39767784720132
variance: 0.10452267105707262
---
header:
  frame_id: map
  seq: 26957
  stamp:
    nsecs: 427023625
    secs: 1693405735
temperature: 30.442105429496586
variance: 0.1546663865348851
---
header:
  frame_id: map
  seq: 26958
  stamp:
    nsecs: 456326787
    secs: 1693405735
temperature: 29.897199138186032
variance: 0.09257453459669761
---
header:
  frame_id: map
  seq: 26959
  stamp:
    nsecs: 496377810
    secs: 1693405735
temperature: 30.381282821194034
variance: 0.09091545209040598
---
header:
  frame_id: map
  seq: 26960
  stamp:
    nsecs: 526647111
    secs: 1693405735
temperature: 30.29647701688936
variance: 0.03942979618996208
---
header:
  frame_id: map
  seq: 26961
  stamp:
    nsecs: 556923202
    secs: 1693405735
temperature: 30.020729346431303
variance: 0.04486539412897265
---
header:
  frame_id: map
  seq: 26962
  stamp:
    nsecs: 587167111
    secs: 1693405735
temperature: 30.529743581613804
variance: 0.054316360457134595
---
header:
  frame_id: map
  seq: 26963
  stamp:
    nsecs: 626227826
    secs: 1693405735
temperature: 30.120361857453407
variance: 0.033015732864922896
---
header:
  frame_id: map
  seq: 26964
  stamp:
    nsecs: 656518166
    secs: 1693405735
temperature: 30.257047700850173
variance: 0.029941169643246966
---
header:
  frame_id: map
  seq: 26965
  stamp:
    nsecs: 696600626
    secs: 1693405735
temperature: 30.395271179728464
variance: 0.03354212920394708
---
header:
  frame_id: map
  seq: 26966
  stamp:
    nsecs: 726901439
    secs: 1693405735
temperature: 30.53623004901975
variance: 0.025768150603210572
---
header:
  frame_id: map
  seq: 26967
  stamp:
    nsecs: 757201857
    secs: 1693405735
temperature: 31.052689559011625
variance: 0.10341330739687352
---
header:
  frame_id: map
  seq: 26968
  stamp:
    nsecs: 797263113
    secs: 1693405735
temperature: 30.94450200062076
variance: 0.09606126707837177
---
header:
  frame_id: map
  seq: 26969
  stamp:
    nsecs: 826547307
    secs: 1693405735
temperature: 30.927423770484964
variance: 0.06604183495469428
---
header:
  frame_id: map
  seq: 26970
  stamp:
    nsecs: 856855287
    secs: 1693405735
temperature: 30.65707684872545
variance: 0.037638028509410934
---
header:
  frame_id: map
  seq: 26971
  stamp:
    nsecs: 887168401
    secs: 1693405735
temperature: 30.284686351498898
variance: 0.07667478055450647
---
header:
  frame_id: map
  seq: 26972
  stamp:
    nsecs: 927228278
    secs: 1693405735
temperature: 30.92310337741573
variance: 0.06487832339303604
---
header:
  frame_id: map
  seq: 26973
  stamp:
    nsecs: 956514626
    secs: 1693405735
temperature: 30.819096118496095
variance: 0.05750540167882097
---
header:
  frame_id: map
  seq: 26974
  stamp:
    nsecs: 996545473
    secs: 1693405735
temperature: 31.422084258069763
variance: 0.1372467839226955
---
header:
  frame_id: map
  seq: 26975
  stamp:
    nsecs: 26799574
    secs: 1693405736
temperature: 31.111468750469783
variance: 0.14045010480198789
---
header:
  frame_id: map
  seq: 26976
  stamp:
    nsecs: 57058061
    secs: 1693405736
temperature: 31.48488090816905
variance: 0.0697233131155139
---
header:
  frame_id: map
  seq: 26977
  stamp:
    nsecs: 98083028
    secs: 1693405736
temperature: 31.120702096313703
variance: 0.05786866903425682
---
header:
  frame_id: map
  seq: 26978
  stamp:
    nsecs: 126338899
    secs: 1693405736
temperature: 31.565844993064484
variance: 0.03580948087115367
---
header:
  frame_id: map
  seq: 26979
  stamp:
    nsecs: 156572101
    secs: 1693405736
temperature: 31.413606768946078
variance: 0.035546010474637624
---
header:
  frame_id: map
  seq: 26980
  stamp:
    nsecs: 186822343
    secs: 1693405736
temperature: 31.415137396267564
variance: 0.02262618565972626
---
header:
  frame_id: map
  seq: 26981
  stamp:
    nsecs: 226838943
    secs: 1693405736
temperature: 30.983820946872783
variance: 0.04579069051451475
---
header:
  frame_id: map
  seq: 26982
  stamp:
    nsecs: 257104761
    secs: 1693405736
temperature: 31.55015540725997
variance: 0.04452998400786466
---
header:
  frame_id: map
  seq: 26983
  stamp:
    nsecs: 297118926
    secs: 1693405736
temperature: 31.074215841861985
variance: 0.047778624189206385
---
header:
  frame_id: map
  seq: 26984
  stamp:
    nsecs: 326392723
    secs: 1693405736
temperature: 31.85740022664542
variance: 0.1016972002332914
---
header:
  frame_id: map
  seq: 26985
  stamp:
    nsecs: 356682756
    secs: 1693405736
temperature: 31.1082392827507
variance: 0.11198047373681333
---
header:
  frame_id: map
  seq: 26986
  stamp:
    nsecs: 386983782
    secs: 1693405736
temperature: 31.796599666884248
variance: 0.11008380381099106
---
header:
  frame_id: map
  seq: 26987
  stamp:
    nsecs: 427033384
    secs: 1693405736
temperature: 31.582752478031615
variance: 0.11120347603770145
---
header:
  frame_id: map
  seq: 26988
  stamp:
    nsecs: 456321155
    secs: 1693405736
temperature: 31.25413025067771
variance: 0.08690352396483057
---
header:
  frame_id: map
  seq: 26989
  stamp:
    nsecs: 496360070
    secs: 1693405736
temperature: 31.54799970153043
variance: 0.06044165599167247
---
header:
  frame_id: map
  seq: 26990
  stamp:
    nsecs: 526670603
    secs: 1693405736
temperature: 31.483892434737736
variance: 0.03047298929920304
---
header:
  frame_id: map
  seq: 26991
  stamp:
    nsecs: 556989202
    secs: 1693405736
temperature: 32.31921324975376
variance: 0.12926163012553762
---
header:
  frame_id: map
  seq: 26992
  stamp:
    nsecs: 597054655
    secs: 1693405736
temperature: 32.360887003036595
variance: 0.20906980405150216
---
header:
  frame_id: map
  seq: 26993
  stamp:
    nsecs: 626361582
    secs: 1693405736
temperature: 32.31719389140329
variance: 0.16064988269334757
---
header:
  frame_id: map
  seq: 26994
  stamp:
    nsecs: 656636168
    secs: 1693405736
temperature: 32.23875199383139
variance: 0.1104911432583442
---
header:
  frame_id: map
  seq: 26995
  stamp:
    nsecs: 686917855
    secs: 1693405736
temperature: 32.36118896276925
variance: 0.0019952960931155887
---
header:
  frame_id: map
  seq: 26996
  stamp:
    nsecs: 726939734
    secs: 1693405736
temperature: 32.04170966016716
variance: 0.014342563701088995
---
header:
  frame_id: map
  seq: 26997
  stamp:
    nsecs: 757228540
    secs: 1693405736
temperature: 32.22276141238654
variance: 0.012039155685738195
---
header:
  frame_id: map
  seq: 26998
  stamp:
    nsecs: 796288647
    secs: 1693405736
temperature: 31.744391301367735
variance: 0.04600596635000459
---
header:
  frame_id: map
  seq: 26999
  stamp:
    nsecs: 827565086
    secs: 1693405736
temperature: 32.4419548886138
variance: 0.062121783565100355
---
header:
  frame_id: map
  seq: 27000
  stamp:
    nsecs: 856867842
    secs: 1693405736
temperature: 32.54490161551768
variance: 0.08212976535148216
---
header:
  frame_id: map
  seq: 27001
  stamp:
    nsecs: 887167855
    secs: 1693405736
temperature: 32.505069068523845
variance: 0.08730264452669813
---
header:
  frame_id: map
  seq: 27002
  stamp:
    nsecs: 927200912
    secs: 1693405736
temperature: 32.74203563182259
variance: 0.1161027232753272
---
header:
  frame_id: map
  seq: 27003
  stamp:
    nsecs: 956473154
    secs: 1693405736
temperature: 32.05944029788225
variance: 0.04990971916881368
---
header:
  frame_id: map
  seq: 27004
  stamp:
    nsecs: 986775800
    secs: 1693405736
temperature: 32.12274539457545
variance: 0.06834843544502815
---
header:
  frame_id: map
  seq: 27005
  stamp:
    nsecs: 26837919
    secs: 1693405737
temperature: 32.75758434562487
variance: 0.08835220803915687
---
header:
  frame_id: map
  seq: 27006
  stamp:
    nsecs: 57138544
    secs: 1693405737
temperature: 32.4995366937276
variance: 0.0882073014873073
---
header:
  frame_id: map
  seq: 27007
  stamp:
    nsecs: 97211023
    secs: 1693405737
temperature: 32.646876149455785
variance: 0.07801749598705943
---
header:
  frame_id: map
  seq: 27008
  stamp:
    nsecs: 126502907
    secs: 1693405737
temperature: 32.97000545702261
variance: 0.0803593913716423
---
header:
  frame_id: map
  seq: 27009
  stamp:
    nsecs: 156756683
    secs: 1693405737
temperature: 32.95110211635724
variance: 0.03222804718018948
---
header:
  frame_id: map
  seq: 27010
  stamp:
    nsecs: 187073282
    secs: 1693405737
temperature: 32.65616613762883
variance: 0.0341754345808981
---
header:
  frame_id: map
  seq: 27011
  stamp:
    nsecs: 227095147
    secs: 1693405737
temperature: 33.181580320299894
variance: 0.041709788695750497
---
header:
  frame_id: map
  seq: 27012
  stamp:
    nsecs: 256390222
    secs: 1693405737
temperature: 32.862873455381184
variance: 0.02893389672806772
---
header:
  frame_id: map
  seq: 27013
  stamp:
    nsecs: 286663158
    secs: 1693405737
temperature: 32.691800396897385
variance: 0.03623645287299827
---
header:
  frame_id: map
  seq: 27014
  stamp:
    nsecs: 326714590
    secs: 1693405737
temperature: 32.759503294970585
variance: 0.03579515461282039
---
header:
  frame_id: map
  seq: 27015
  stamp:
    nsecs: 356986447
    secs: 1693405737
temperature: 33.48765891897458
variance: 0.0884713960900387
---
header:
  frame_id: map
  seq: 27016
  stamp:
    nsecs: 387280298
    secs: 1693405737
temperature: 33.01537435377622
variance: 0.08059890712397716
---
header:
  frame_id: map
  seq: 27017
  stamp:
    nsecs: 427303487
    secs: 1693405737
temperature: 33.268193916212795
variance: 0.09057944612018594
---
header:
  frame_id: map
  seq: 27018
  stamp:
    nsecs: 456562969
    secs: 1693405737
temperature: 32.86135666248167
variance: 0.07125794855887443
---
header:
  frame_id: map
  seq: 27019
  stamp:
    nsecs: 486851206
    secs: 1693405737
temperature: 33.56423447381379
variance: 0.07221665288920402
---
header:
  frame_id: map
  seq: 27020
  stamp:
    nsecs: 526898558
    secs: 1693405737
temperature: 33.47578162615044
variance: 0.07105959392770306
---
header:
  frame_id: map
  seq: 27021
  stamp:
    nsecs: 557187152
    secs: 1693405737
temperature: 33.78199376299073
variance: 0.09713505256565673
---
header:
  frame_id: map
  seq: 27022
  stamp:
    nsecs: 597214171
    secs: 1693405737
temperature: 34.02765867820142
variance: 0.15232314910948994
---
header:
  frame_id: map
  seq: 27023
  stamp:
    nsecs: 626485487
    secs: 1693405737
temperature: 33.37766807217266
variance: 0.05436363021063064
---
header:
  frame_id: map
  seq: 27024
  stamp:
    nsecs: 656784778
    secs: 1693405737
temperature: 33.36872294726715
variance: 0.06683237464656236
---
header:
  frame_id: map
  seq: 27025
  stamp:
    nsecs: 687041505
    secs: 1693405737
temperature: 33.35094170714512
variance: 0.0758467834995643
---
header:
  frame_id: map
  seq: 27026
  stamp:
    nsecs: 727097053
    secs: 1693405737
temperature: 33.809818151426185
variance: 0.07820324748172945
---
header:
  frame_id: map
  seq: 27027
  stamp:
    nsecs: 756385888
    secs: 1693405737
temperature: 34.2146709764357
variance: 0.11676530951762927
---
header:
  frame_id: map
  seq: 27028
  stamp:
    nsecs: 786663962
    secs: 1693405737
temperature: 34.32210936110416
variance: 0.16628433710195117
---
header:
  frame_id: map
  seq: 27029
  stamp:
    nsecs: 826695793
    secs: 1693405737
temperature: 33.546746638126564
variance: 0.13970040079074372
---
header:
  frame_id: map
  seq: 27030
  stamp:
    nsecs: 856962993
    secs: 1693405737
temperature: 33.518383947058794
variance: 0.11083746004444514
---
header:
  frame_id: map
  seq: 27031
  stamp:
    nsecs: 897033638
    secs: 1693405737
temperature: 34.203655483703365
variance: 0.12422907454313159
---
header:
  frame_id: map
  seq: 27032
  stamp:
    nsecs: 926334422
    secs: 1693405737
temperature: 34.2765599158693
variance: 0.13111887981023043
---
header:
  frame_id: map
  seq: 27033
  stamp:
    nsecs: 956609473
    secs: 1693405737
temperature: 33.905344441991154
variance: 0.10079300976345791
---
header:
  frame_id: map
  seq: 27034
  stamp:
    nsecs: 986929540
    secs: 1693405737
temperature: 34.6335272489944
variance: 0.1404912784367412
---
header:
  frame_id: map
  seq: 27035
  stamp:
    nsecs: 26976282
    secs: 1693405738
temperature: 34.45084236633043
variance: 0.059879542124218296
---
header:
  frame_id: map
  seq: 27036
  stamp:
    nsecs: 57263300
    secs: 1693405738
temperature: 34.24921399074215
variance: 0.058565507128855276
---
header:
  frame_id: map
  seq: 27037
  stamp:
    nsecs: 86549483
    secs: 1693405738
temperature: 34.72082808111333
variance: 0.08542944153938599
---
header:
  frame_id: map
  seq: 27038
  stamp:
    nsecs: 126629467
    secs: 1693405738
temperature: 34.90065343564665
variance: 0.05020219706248859
---
header:
  frame_id: map
  seq: 27039
  stamp:
    nsecs: 156871483
    secs: 1693405738
temperature: 34.96174233866639
variance: 0.0730197442699522
---
header:
  frame_id: map
  seq: 27040
  stamp:
    nsecs: 187135380
    secs: 1693405738
temperature: 34.65188779112893
variance: 0.06293566714121344
---
header:
  frame_id: map
  seq: 27041
  stamp:
    nsecs: 227188014
    secs: 1693405738
temperature: 34.68893012296306
variance: 0.015135940882206902
---
header:
  frame_id: map
  seq: 27042
  stamp:
    nsecs: 256478281
    secs: 1693405738
temperature: 34.4956865722855
variance: 0.029007978782263938
---
header:
  frame_id: map
  seq: 27043
  stamp:
    nsecs: 286739707
    secs: 1693405738
temperature: 34.549448387046205
variance: 0.026143358778799686
---
header:
  frame_id: map
  seq: 27044
  stamp:
    nsecs: 326815930
    secs: 1693405738
temperature: 34.64308738070527
variance: 0.005145104303261625
---
header:
  frame_id: map
  seq: 27045
  stamp:
    nsecs: 357041856
    secs: 1693405738
temperature: 34.63368598812167
variance: 0.0048626194622467065
---
header:
  frame_id: map
  seq: 27046
  stamp:
    nsecs: 397119096
    secs: 1693405738
temperature: 34.723147589461455
variance: 0.006237469318640339
---
header:
  frame_id: map
  seq: 27047
  stamp:
    nsecs: 426394390
    secs: 1693405738
temperature: 34.59589087468592
variance: 0.0033017682281872435
---
header:
  frame_id: map
  seq: 27048
  stamp:
    nsecs: 456677852
    secs: 1693405738
temperature: 34.53442858698079
variance: 0.0038161157360215373
---
header:
  frame_id: map
  seq: 27049
  stamp:
    nsecs: 486950046
    secs: 1693405738
temperature: 34.39746259705351
variance: 0.011795051803451006
---
header:
  frame_id: map
  seq: 27050
  stamp:
    nsecs: 526977353
    secs: 1693405738
temperature: 35.09063752368216
variance: 0.05557895531292202
---
header:
  frame_id: map
  seq: 27051
  stamp:
    nsecs: 556285407
    secs: 1693405738
temperature: 34.592105222818404
variance: 0.055452252627510426
---
header:
  frame_id: map
  seq: 27052
  stamp:
    nsecs: 586567731
    secs: 1693405738
temperature: 34.54437370941273
variance: 0.056829223048302714
---
header:
  frame_id: map
  seq: 27053
  stamp:
    nsecs: 626622189
    secs: 1693405738
temperature: 34.5364603583977
variance: 0.05675074772018842
---
header:
  frame_id: map
  seq: 27054
  stamp:
    nsecs: 656872757
    secs: 1693405738
temperature: 35.102073174452755
variance: 0.070025313861378
---
header:
  frame_id: map
  seq: 27055
  stamp:
    nsecs: 687139619
    secs: 1693405738
temperature: 34.802064815870615
variance: 0.04669958448917004
---
header:
  frame_id: map
  seq: 27056
  stamp:
    nsecs: 727183909
    secs: 1693405738
temperature: 35.110361857825794
variance: 0.06411143620209223
---
header:
  frame_id: map
  seq: 27057
  stamp:
    nsecs: 756463321
    secs: 1693405738
temperature: 35.04990505901439
variance: 0.04945496334537606
---
header:
  frame_id: map
  seq: 27058
  stamp:
    nsecs: 786741283
    secs: 1693405738
temperature: 34.59117666226392
variance: 0.041535847010249635
---
header:
  frame_id: map
  seq: 27059
  stamp:
    nsecs: 826777366
    secs: 1693405738
temperature: 34.96051563440834
variance: 0.03506191989895082
---
header:
  frame_id: map
  seq: 27060
  stamp:
    nsecs: 857092066
    secs: 1693405738
temperature: 34.95710390586789
variance: 0.0326604044565544
---
header:
  frame_id: map
  seq: 27061
  stamp:
    nsecs: 886393224
    secs: 1693405738
temperature: 35.005044920061415
variance: 0.026997619763672116
---
header:
  frame_id: map
  seq: 27062
  stamp:
    nsecs: 926453110
    secs: 1693405738
temperature: 34.45089243278597
variance: 0.051544972163532966
---
header:
  frame_id: map
  seq: 27063
  stamp:
    nsecs: 956719225
    secs: 1693405738
temperature: 34.57376137230501
variance: 0.05299905249747441
---
header:
  frame_id: map
  seq: 27064
  stamp:
    nsecs: 987002560
    secs: 1693405738
temperature: 34.446554768612465
variance: 0.06009836618194925
---
header:
  frame_id: map
  seq: 27065
  stamp:
    nsecs: 27034562
    secs: 1693405739
temperature: 34.91326567102042
variance: 0.055663740635960926
---
header:
  frame_id: map
  seq: 27066
  stamp:
    nsecs: 57327495
    secs: 1693405739
temperature: 34.85962824392534
variance: 0.04001839438201211
---
header:
  frame_id: map
  seq: 27067
  stamp:
    nsecs: 86605215
    secs: 1693405739
temperature: 34.12779652867312
variance: 0.0823008473396703
---
header:
  frame_id: map
  seq: 27068
  stamp:
    nsecs: 126673697
    secs: 1693405739
temperature: 34.450583190267515
variance: 0.08524289502315174
---
header:
  frame_id: map
  seq: 27069
  stamp:
    nsecs: 156955206
    secs: 1693405739
temperature: 34.50654106184268
variance: 0.08310698960375748
---
header:
  frame_id: map
  seq: 27070
  stamp:
    nsecs: 187209415
    secs: 1693405739
temperature: 34.41279253801353
variance: 0.05477751199031648
---
header:
  frame_id: map
  seq: 27071
  stamp:
    nsecs: 226275403
    secs: 1693405739
temperature: 34.08160949177152
variance: 0.03082933840316083
---
header:
  frame_id: map
  seq: 27072
  stamp:
    nsecs: 256568700
    secs: 1693405739
temperature: 34.042752382361364
variance: 0.038384173635657375
---
header:
  frame_id: map
  seq: 27073
  stamp:
    nsecs: 286869186
    secs: 1693405739
temperature: 34.85265295126138
variance: 0.08865179748437836
---
header:
  frame_id: map
  seq: 27074
  stamp:
    nsecs: 326939480
    secs: 1693405739
temperature: 34.283634423790026
variance: 0.08525392268198109
---
header:
  frame_id: map
  seq: 27075
  stamp:
    nsecs: 357238145
    secs: 1693405739
temperature: 34.935153498312516
variance: 0.1452311082442905
---
header:
  frame_id: map
  seq: 27076
  stamp:
    nsecs: 386526017
    secs: 1693405739
temperature: 34.46957585861612
variance: 0.11382685860146091
---
header:
  frame_id: map
  seq: 27077
  stamp:
    nsecs: 426552753
    secs: 1693405739
temperature: 34.77015246175397
variance: 0.06056912449874362
---
header:
  frame_id: map
  seq: 27078
  stamp:
    nsecs: 456853544
    secs: 1693405739
temperature: 34.24440247307437
variance: 0.07343510107592408
---
header:
  frame_id: map
  seq: 27079
  stamp:
    nsecs: 487110983
    secs: 1693405739
temperature: 34.32325868717703
variance: 0.06961374323342913
---
header:
  frame_id: map
  seq: 27080
  stamp:
    nsecs: 527165350
    secs: 1693405739
temperature: 34.05871296145898
variance: 0.05696891919931955
---
header:
  frame_id: map
  seq: 27081
  stamp:
    nsecs: 556451252
    secs: 1693405739
temperature: 34.405850261636566
variance: 0.055162550077710724
---
header:
  frame_id: map
  seq: 27082
  stamp:
    nsecs: 586727644
    secs: 1693405739
temperature: 34.73597124785632
variance: 0.04974818280479247
---
header:
  frame_id: map
  seq: 27083
  stamp:
    nsecs: 626753479
    secs: 1693405739
temperature: 34.29579826395053
variance: 0.047925105503099995
---
header:
  frame_id: map
  seq: 27084
  stamp:
    nsecs: 657014446
    secs: 1693405739
temperature: 34.24375860444943
variance: 0.0502293241453551
---
header:
  frame_id: map
  seq: 27085
  stamp:
    nsecs: 686320183
    secs: 1693405739
temperature: 34.454167771497595
variance: 0.029487975234552294
---
header:
  frame_id: map
  seq: 27086
  stamp:
    nsecs: 726376448
    secs: 1693405739
temperature: 34.58677896051781
variance: 0.03318706330177141
---
header:
  frame_id: map
  seq: 27087
  stamp:
    nsecs: 756646849
    secs: 1693405739
temperature: 34.3995406405682
variance: 0.014602093517589076
---
header:
  frame_id: map
  seq: 27088
  stamp:
    nsecs: 786940522
    secs: 1693405739
temperature: 34.90791656795417
variance: 0.050016011264200466
---
header:
  frame_id: map
  seq: 27089
  stamp:
    nsecs: 826989207
    secs: 1693405739
temperature: 34.59075202838328
variance: 0.03115670562297715
---
header:
  frame_id: map
  seq: 27090
  stamp:
    nsecs: 857269060
    secs: 1693405739
temperature: 34.971376331354485
variance: 0.04630471026669379
---
header:
  frame_id: map
  seq: 27091
  stamp:
    nsecs: 886536753
    secs: 1693405739
temperature: 34.53553069598213
variance: 0.04886698514472979
---
header:
  frame_id: map
  seq: 27092
  stamp:
    nsecs: 926549095
    secs: 1693405739
temperature: 34.97931246053265
variance: 0.03737036869668396
---
header:
  frame_id: map
  seq: 27093
  stamp:
    nsecs: 956840101
    secs: 1693405739
temperature: 34.37966745112657
variance: 0.05857654822649351
---
header:
  frame_id: map
  seq: 27094
  stamp:
    nsecs: 987140548
    secs: 1693405739
temperature: 34.777999081462454
variance: 0.05665337539848225
---
header:
  frame_id: map
  seq: 27095
  stamp:
    nsecs: 27181762
    secs: 1693405740
temperature: 34.29920312417966
variance: 0.06371661329744525
---
header:
  frame_id: map
  seq: 27096
  stamp:
    nsecs: 56464023
    secs: 1693405740
temperature: 34.4429058949213
variance: 0.06726828488119348
---
header:
  frame_id: map
  seq: 27097
  stamp:
    nsecs: 86720114
    secs: 1693405740
temperature: 34.743178295631644
variance: 0.03807821135195783
---
header:
  frame_id: map
  seq: 27098
  stamp:
    nsecs: 126748525
    secs: 1693405740
temperature: 34.28523263186671
variance: 0.045130499626462386
---
header:
  frame_id: map
  seq: 27099
  stamp:
    nsecs: 157058631
    secs: 1693405740
temperature: 34.35386837443619
variance: 0.0283954906740346
---
header:
  frame_id: map
  seq: 27100
  stamp:
    nsecs: 186354720
    secs: 1693405740
temperature: 34.221395327708585
variance: 0.03327552279752466
---
header:
  frame_id: map
  seq: 27101
  stamp:
    nsecs: 226416394
    secs: 1693405740
temperature: 34.413841436940984
variance: 0.03302017401624808
---
header:
  frame_id: map
  seq: 27102
  stamp:
    nsecs: 256681957
    secs: 1693405740
temperature: 35.13297975653552
variance: 0.11029373997147988
---
header:
  frame_id: map
  seq: 27103
  stamp:
    nsecs: 286922010
    secs: 1693405740
temperature: 34.150567676074694
variance: 0.12376545279144749
---
header:
  frame_id: map
  seq: 27104
  stamp:
    nsecs: 326979123
    secs: 1693405740
temperature: 34.529915641978945
variance: 0.12163575738695853
---
header:
  frame_id: map
  seq: 27105
  stamp:
    nsecs: 356295924
    secs: 1693405740
temperature: 34.42684776117756
variance: 0.10633664604391142
---
header:
  frame_id: map
  seq: 27106
  stamp:
    nsecs: 386583027
    secs: 1693405740
temperature: 34.520726726223124
variance: 0.10316279845867216
---
header:
  frame_id: map
  seq: 27107
  stamp:
    nsecs: 426642471
    secs: 1693405740
temperature: 34.879579518699416
variance: 0.054569537427110015
---
header:
  frame_id: map
  seq: 27108
  stamp:
    nsecs: 456927336
    secs: 1693405740
temperature: 34.761468232824
variance: 0.028520843725890976
---
header:
  frame_id: map
  seq: 27109
  stamp:
    nsecs: 487191909
    secs: 1693405740
temperature: 34.41633576639808
variance: 0.03484605631465103
---
header:
  frame_id: map
  seq: 27110
  stamp:
    nsecs: 527248540
    secs: 1693405740
temperature: 34.619235076950275
variance: 0.027366890632212267
---
header:
  frame_id: map
  seq: 27111
  stamp:
    nsecs: 557493093
    secs: 1693405740
temperature: 35.09006490016291
variance: 0.05218842528746607
---
header:
  frame_id: map
  seq: 27112
  stamp:
    nsecs: 586769772
    secs: 1693405740
temperature: 34.412650879613004
variance: 0.06349344672994381
---
header:
  frame_id: map
  seq: 27113
  stamp:
    nsecs: 626841603
    secs: 1693405740
temperature: 34.33267212419234
variance: 0.07549994047526819
---
header:
  frame_id: map
  seq: 27114
  stamp:
    nsecs: 657147926
    secs: 1693405740
temperature: 34.5479187037937
variance: 0.06996173000657452
---
header:
  frame_id: map
  seq: 27115
  stamp:
    nsecs: 686458650
    secs: 1693405740
temperature: 34.77803512362438
variance: 0.0751860456532849
---
header:
  frame_id: map
  seq: 27116
  stamp:
    nsecs: 726497813
    secs: 1693405740
temperature: 34.25851837055785
variance: 0.033549532337495094
---
header:
  frame_id: map
  seq: 27117
  stamp:
    nsecs: 756755228
    secs: 1693405740
temperature: 34.64437666329628
variance: 0.037199876419298006
---
header:
  frame_id: map
  seq: 27118
  stamp:
    nsecs: 787038746
    secs: 1693405740
temperature: 34.868256621622706
variance: 0.04461273564660575
---
header:
  frame_id: map
  seq: 27119
  stamp:
    nsecs: 827109589
    secs: 1693405740
temperature: 35.11128921565616
variance: 0.07928161317925839
---
header:
  frame_id: map
  seq: 27120
  stamp:
    nsecs: 856406770
    secs: 1693405740
temperature: 34.962382126301534
variance: 0.08810657892929231
---
header:
  frame_id: map
  seq: 27121
  stamp:
    nsecs: 886698358
    secs: 1693405740
temperature: 34.45431671568753
variance: 0.05426268688137772
---
header:
  frame_id: map
  seq: 27122
  stamp:
    nsecs: 926758779
    secs: 1693405740
temperature: 34.90748360488929
variance: 0.048105476275002355
---
header:
  frame_id: map
  seq: 27123
  stamp:
    nsecs: 957029902
    secs: 1693405740
temperature: 34.41567946769756
variance: 0.07951793268841592
---
header:
  frame_id: map
  seq: 27124
  stamp:
    nsecs: 987268506
    secs: 1693405740
temperature: 34.98585877584279
variance: 0.06492350829787912
---
header:
  frame_id: map
  seq: 27125
  stamp:
    nsecs: 26301740
    secs: 1693405741
temperature: 34.38719395501586
variance: 0.06787704900908414
---
header:
  frame_id: map
  seq: 27126
  stamp:
    nsecs: 56572860
    secs: 1693405741
temperature: 35.054532334316356
variance: 0.08331374464983131
---
header:
  frame_id: map
  seq: 27127
  stamp:
    nsecs: 86826000
    secs: 1693405741
temperature: 34.76175641241524
variance: 0.0775404354708161
---
header:
  frame_id: map
  seq: 27128
  stamp:
    nsecs: 126865937
    secs: 1693405741
temperature: 35.00667221889172
variance: 0.061246145751407764
---
header:
  frame_id: map
  seq: 27129
  stamp:
    nsecs: 157153139
    secs: 1693405741
temperature: 34.9532553856681
variance: 0.059503629127150605
---
header:
  frame_id: map
  seq: 27130
  stamp:
    nsecs: 187410764
    secs: 1693405741
temperature: 34.39499750530554
variance: 0.058122816854473715
---
header:
  frame_id: map
  seq: 27131
  stamp:
    nsecs: 226436860
    secs: 1693405741
temperature: 34.98484606011054
variance: 0.05275934158782959
---
header:
  frame_id: map
  seq: 27132
  stamp:
    nsecs: 256687458
    secs: 1693405741
temperature: 34.61127533218001
variance: 0.05990668343971302
---
header:
  frame_id: map
  seq: 27133
  stamp:
    nsecs: 286949649
    secs: 1693405741
temperature: 34.64233333918715
variance: 0.0495991916382162
---
header:
  frame_id: map
  seq: 27134
  stamp:
    nsecs: 327013418
    secs: 1693405741
temperature: 34.79530242250108
variance: 0.03868573643985021
---
header:
  frame_id: map
  seq: 27135
  stamp:
    nsecs: 356309530
    secs: 1693405741
temperature: 35.02962030427339
variance: 0.029317610608018397
---
header:
  frame_id: map
  seq: 27136
  stamp:
    nsecs: 386587617
    secs: 1693405741
temperature: 34.70502127013392
variance: 0.02257487943788985
---
header:
  frame_id: map
  seq: 27137
  stamp:
    nsecs: 426634065
    secs: 1693405741
temperature: 34.552755441823166
variance: 0.026527152666409322
---
header:
  frame_id: map
  seq: 27138
  stamp:
    nsecs: 456909439
    secs: 1693405741
temperature: 34.76887979145516
variance: 0.023892220888294662
---
header:
  frame_id: map
  seq: 27139
  stamp:
    nsecs: 486195491
    secs: 1693405741
temperature: 35.000833746829244
variance: 0.0327053305935164
---
header:
  frame_id: map
  seq: 27140
  stamp:
    nsecs: 526249271
    secs: 1693405741
temperature: 34.529857807757395
variance: 0.029048429519709595
---
header:
  frame_id: map
  seq: 27141
  stamp:
    nsecs: 556524103
    secs: 1693405741
temperature: 34.53386177588374
variance: 0.034177199060845265
---
header:
  frame_id: map
  seq: 27142
  stamp:
    nsecs: 586758734
    secs: 1693405741
temperature: 34.97777361498314
variance: 0.04191677971143683
---
header:
  frame_id: map
  seq: 27143
  stamp:
    nsecs: 626805504
    secs: 1693405741
temperature: 34.67212759845114
variance: 0.04315762399871544
---
header:
  frame_id: map
  seq: 27144
  stamp:
    nsecs: 657097480
    secs: 1693405741
temperature: 35.19134531442214
variance: 0.06862120695096614
---
header:
  frame_id: map
  seq: 27145
  stamp:
    nsecs: 686381042
    secs: 1693405741
temperature: 34.80457215505485
variance: 0.05309988197305132
---
header:
  frame_id: map
  seq: 27146
  stamp:
    nsecs: 726459365
    secs: 1693405741
temperature: 35.030054167277655
variance: 0.032538193388274524
---
header:
  frame_id: map
  seq: 27147
  stamp:
    nsecs: 756710635
    secs: 1693405741
temperature: 34.673749850203734
variance: 0.042146616508259946
---
header:
  frame_id: map
  seq: 27148
  stamp:
    nsecs: 786985848
    secs: 1693405741
temperature: 34.75545297038424
variance: 0.03651675209031279
---
header:
  frame_id: map
  seq: 27149
  stamp:
    nsecs: 827066836
    secs: 1693405741
temperature: 35.049874621716285
variance: 0.022724935768645694
---
header:
  frame_id: map
  seq: 27150
  stamp:
    nsecs: 856361622
    secs: 1693405741
temperature: 35.3535255224342
variance: 0.05816816462664731
---
header:
  frame_id: map
  seq: 27151
  stamp:
    nsecs: 886635827
    secs: 1693405741
temperature: 35.0452207418642
variance: 0.05855393780015541
---
header:
  frame_id: map
  seq: 27152
  stamp:
    nsecs: 926689323
    secs: 1693405741
temperature: 35.38623338882544
variance: 0.05375992799661235
---
header:
  frame_id: map
  seq: 27153
  stamp:
    nsecs: 956961518
    secs: 1693405741
temperature: 35.22916311790324
variance: 0.02095561024742086
---
header:
  frame_id: map
  seq: 27154
  stamp:
    nsecs: 987252203
    secs: 1693405741
temperature: 35.14870263540791
variance: 0.016077552336341255
---
header:
  frame_id: map
  seq: 27155
  stamp:
    nsecs: 26304115
    secs: 1693405742
temperature: 35.384585703800624
variance: 0.01773468151477159
---
header:
  frame_id: map
  seq: 27156
  stamp:
    nsecs: 56584763
    secs: 1693405742
temperature: 34.779578055873515
variance: 0.04959240661453625
---
header:
  frame_id: map
  seq: 27157
  stamp:
    nsecs: 86874353
    secs: 1693405742
temperature: 34.50338011336784
variance: 0.10346782207402931
---
header:
  frame_id: map
  seq: 27158
  stamp:
    nsecs: 126919831
    secs: 1693405742
temperature: 35.271732206034805
variance: 0.10750522471043684
---
header:
  frame_id: map
  seq: 27159
  stamp:
    nsecs: 156240143
    secs: 1693405742
temperature: 34.809473553881574
variance: 0.10812733557964169
---
header:
  frame_id: map
  seq: 27160
  stamp:
    nsecs: 186535315
