header:
  frame_id: world_ned
  seq: 141431
  stamp:
    nsecs: 72955846
    secs: 1689867687
temperature: 26.48561277685055
variance: 1.729000357040587
---
header:
  frame_id: world_ned
  seq: 141432
  stamp:
    nsecs: 76956272
    secs: 1689867687
temperature: 26.1561797800873
variance: 1.5090645133044744
---
header:
  frame_id: world_ned
  seq: 141433
  stamp:
    nsecs: 80957412
    secs: 1689867687
temperature: 24.227963704779604
variance: 1.745767773205155
---
header:
  frame_id: world_ned
  seq: 141434
  stamp:
    nsecs: 84958076
    secs: 1689867687
temperature: 25.689891833060813
variance: 0.6856041825755611
---
header:
  frame_id: world_ned
  seq: 141435
  stamp:
    nsecs: 88958501
    secs: 1689867687
temperature: 25.801766408505234
variance: 0.5997591340632824
---
header:
  frame_id: world_ned
  seq: 141436
  stamp:
    nsecs: 92958688
    secs: 1689867687
temperature: 25.026656080361914
variance: 0.46568264908901114
---
header:
  frame_id: world_ned
  seq: 141437
  stamp:
    nsecs: 96959352
    secs: 1689867687
temperature: 26.93654484291472
variance: 0.8052457843110428
---
header:
  frame_id: world_ned
  seq: 141438
  stamp:
    nsecs: 100960731
    secs: 1689867687
temperature: 24.799416449677167
variance: 0.5583736791959312
---
header:
  frame_id: world_ned
  seq: 141439
  stamp:
    nsecs: 104960680
    secs: 1689867687
temperature: 24.851628306426363
variance: 0.6577141774799184
---
header:
  frame_id: world_ned
  seq: 141440
  stamp:
    nsecs: 108961105
    secs: 1689867687
temperature: 23.819399512742383
variance: 1.0338744550673211
---
header:
  frame_id: world_ned
  seq: 141441
  stamp:
    nsecs: 112961530
    secs: 1689867687
temperature: 25.126812293128733
variance: 1.0330727857925481
---
header:
  frame_id: world_ned
  seq: 141442
  stamp:
    nsecs: 116961479
    secs: 1689867687
temperature: 26.741376393008395
variance: 0.8963208149604661
---
header:
  frame_id: world_ned
  seq: 141443
  stamp:
    nsecs: 120962142
    secs: 1689867687
temperature: 25.580927974050585
variance: 0.910167469978059
---
header:
  frame_id: world_ned
  seq: 141444
  stamp:
    nsecs: 124962568
    secs: 1689867687
temperature: 26.13967272553937
variance: 0.9837494177117911
---
header:
  frame_id: world_ned
  seq: 141445
  stamp:
    nsecs: 128963232
    secs: 1689867687
temperature: 24.170212511499113
variance: 0.7701866628962818
---
header:
  frame_id: world_ned
  seq: 141446
  stamp:
    nsecs: 132963418
    secs: 1689867687
temperature: 24.691886197653535
variance: 0.8743877398623757
---
header:
  frame_id: world_ned
  seq: 141447
  stamp:
    nsecs: 136964082
    secs: 1689867687
temperature: 26.84347724731873
variance: 0.928190870348063
---
header:
  frame_id: world_ned
  seq: 141448
  stamp:
    nsecs: 140964746
    secs: 1689867687
temperature: 25.09201582276291
variance: 0.9477223666673475
---
header:
  frame_id: world_ned
  seq: 141449
  stamp:
    nsecs: 144964933
    secs: 1689867687
temperature: 23.751381730313778
variance: 1.141743853733185
---
header:
  frame_id: world_ned
  seq: 141450
  stamp:
    nsecs: 148965120
    secs: 1689867687
temperature: 24.61705152470009
variance: 1.0415005998705145
---
header:
  frame_id: world_ned
  seq: 141451
  stamp:
    nsecs: 152965784
    secs: 1689867687
temperature: 23.576624497503715
variance: 1.3775873840198434
---
header:
  frame_id: world_ned
  seq: 141452
  stamp:
    nsecs: 156966447
    secs: 1689867687
temperature: 23.29183683022012
variance: 0.45883353309967745
---
header:
  frame_id: world_ned
  seq: 141453
  stamp:
    nsecs: 160966873
    secs: 1689867687
temperature: 26.893704772178012
variance: 1.7177884211190986
---
header:
  frame_id: world_ned
  seq: 141454
  stamp:
    nsecs: 164967536
    secs: 1689867687
temperature: 25.449080358173482
variance: 1.7207365158533783
---
header:
  frame_id: world_ned
  seq: 141455
  stamp:
    nsecs: 168968200
    secs: 1689867687
temperature: 25.862284645576
variance: 1.8948127226642573
---
header:
  frame_id: world_ned
  seq: 141456
  stamp:
    nsecs: 172968626
    secs: 1689867687
temperature: 24.093108929606604
variance: 1.640394980785717
---
header:
  frame_id: world_ned
  seq: 141457
  stamp:
    nsecs: 176969289
    secs: 1689867687
temperature: 23.242012943864783
variance: 1.6771868483490635
---
header:
  frame_id: world_ned
  seq: 141458
  stamp:
    nsecs: 180969953
    secs: 1689867687
temperature: 26.49757120033877
variance: 1.4193493670667325
---
header:
  frame_id: world_ned
  seq: 141459
  stamp:
    nsecs: 184970140
    secs: 1689867687
temperature: 24.25533828646588
variance: 1.4466755966535927
---
header:
  frame_id: world_ned
  seq: 141460
  stamp:
    nsecs: 188969850
    secs: 1689867687
temperature: 24.56960479707326
variance: 1.159623365443359
---
header:
  frame_id: world_ned
  seq: 141461
  stamp:
    nsecs: 192969560
    secs: 1689867687
temperature: 24.147810433801226
variance: 1.150509269941795
---
header:
  frame_id: world_ned
  seq: 141462
  stamp:
    nsecs: 196969747
    secs: 1689867687
temperature: 23.900991906427496
variance: 0.8772009074167325
---
header:
  frame_id: world_ned
  seq: 141463
  stamp:
    nsecs: 200969457
    secs: 1689867687
temperature: 23.398038829086094
variance: 0.15377634151714692
---
header:
  frame_id: world_ned
  seq: 141464
  stamp:
    nsecs: 204969167
    secs: 1689867687
temperature: 24.866758577846404
variance: 0.26274355638986285
---
header:
  frame_id: world_ned
  seq: 141465
  stamp:
    nsecs: 208968877
    secs: 1689867687
temperature: 23.13790184267896
variance: 0.3656642684316985
---
header:
  frame_id: world_ned
  seq: 141466
  stamp:
    nsecs: 212968349
    secs: 1689867687
temperature: 23.701384646960594
variance: 0.35156796330460127
---
header:
  frame_id: world_ned
  seq: 141467
  stamp:
    nsecs: 216968059
    secs: 1689867687
temperature: 23.343214670610134
variance: 0.37904053329848003
---
header:
  frame_id: world_ned
  seq: 141468
  stamp:
    nsecs: 220968008
    secs: 1689867687
temperature: 23.754657808221964
variance: 0.3578183813929087
---
header:
  frame_id: world_ned
  seq: 141469
  stamp:
    nsecs: 224967718
    secs: 1689867687
temperature: 23.7826134521625
variance: 0.06626269406719314
---
header:
  frame_id: world_ned
  seq: 141470
  stamp:
    nsecs: 228967428
    secs: 1689867687
temperature: 23.117878487760795
variance: 0.06957905808800957
---
header:
  frame_id: world_ned
  seq: 141471
  stamp:
    nsecs: 232967138
    secs: 1689867687
temperature: 25.0249760560565
variance: 0.4353516366730192
---
header:
  frame_id: world_ned
  seq: 141472
  stamp:
    nsecs: 236966848
    secs: 1689867687
temperature: 25.274761449760465
variance: 0.6757637600661945
---
header:
  frame_id: world_ned
  seq: 141473
  stamp:
    nsecs: 240966558
    secs: 1689867687
temperature: 23.023048706200832
variance: 0.8890902293298897
---
header:
  frame_id: world_ned
  seq: 141474
  stamp:
    nsecs: 244966745
    secs: 1689867687
temperature: 26.632990556072194
variance: 1.8902665608194238
---
header:
  frame_id: world_ned
  seq: 141475
  stamp:
    nsecs: 248966932
    secs: 1689867687
temperature: 24.822825184464968
variance: 1.334539945620633
---
header:
  frame_id: world_ned
  seq: 141476
  stamp:
    nsecs: 252968072
    secs: 1689867687
temperature: 23.705001079858818
variance: 1.5767470774747296
---
header:
  frame_id: world_ned
  seq: 141477
  stamp:
    nsecs: 256968021
    secs: 1689867687
temperature: 25.407642088767712
variance: 1.6105619211443112
---
header:
  frame_id: world_ned
  seq: 141478
  stamp:
    nsecs: 260968208
    secs: 1689867687
temperature: 24.458816547856422
variance: 0.9667948171890973
---
header:
  frame_id: world_ned
  seq: 141479
  stamp:
    nsecs: 264968156
    secs: 1689867687
temperature: 25.98776804049765
variance: 0.613355741645799
---
header:
  frame_id: world_ned
  seq: 141480
  stamp:
    nsecs: 268968343
    secs: 1689867687
temperature: 25.70752837163498
variance: 0.7196248273283976
---
header:
  frame_id: world_ned
  seq: 141481
  stamp:
    nsecs: 272968530
    secs: 1689867687
temperature: 23.01364307014756
variance: 1.1689780402385541
---
header:
  frame_id: world_ned
  seq: 141482
  stamp:
    nsecs: 276968479
    secs: 1689867687
temperature: 23.18963171798625
variance: 1.51910577878221
---
header:
  frame_id: world_ned
  seq: 141483
  stamp:
    nsecs: 280968904
    secs: 1689867687
temperature: 24.487337166456236
variance: 1.519091487050852
---
header:
  frame_id: world_ned
  seq: 141484
  stamp:
    nsecs: 284969329
    secs: 1689867687
temperature: 23.60262103384333
variance: 0.9881314652239519
---
header:
  frame_id: world_ned
  seq: 141485
  stamp:
    nsecs: 288969278
    secs: 1689867687
temperature: 26.847527124619322
variance: 1.9746296600903146
---
header:
  frame_id: world_ned
  seq: 141486
  stamp:
    nsecs: 292969465
    secs: 1689867687
temperature: 23.6780891972493
variance: 1.7224775371038272
---
header:
  frame_id: world_ned
  seq: 141487
  stamp:
    nsecs: 296970367
    secs: 1689867687
temperature: 26.110101030580136
variance: 1.7187138640420876
---
header:
  frame_id: world_ned
  seq: 141488
  stamp:
    nsecs: 300970792
    secs: 1689867687
temperature: 23.667768705385644
variance: 1.9762633606319195
---
header:
  frame_id: world_ned
  seq: 141489
  stamp:
    nsecs: 304970741
    secs: 1689867687
temperature: 25.524170322022623
variance: 1.6611441353887517
---
header:
  frame_id: world_ned
  seq: 141490
  stamp:
    nsecs: 308970928
    secs: 1689867687
temperature: 25.795281824684572
variance: 1.1303504722865028
---
header:
  frame_id: world_ned
  seq: 141491
  stamp:
    nsecs: 312970399
    secs: 1689867687
temperature: 25.40358495594313
variance: 0.7253457553261093
---
header:
  frame_id: world_ned
  seq: 141492
  stamp:
    nsecs: 316970109
    secs: 1689867687
temperature: 25.53182497109798
variance: 0.5915074070277379
---
header:
  frame_id: world_ned
  seq: 141493
  stamp:
    nsecs: 320969581
    secs: 1689867687
temperature: 26.58096492084572
variance: 0.1819365316326748
---
header:
  frame_id: world_ned
  seq: 141494
  stamp:
    nsecs: 324969291
    secs: 1689867687
temperature: 24.89756650502367
variance: 0.3056623636671412
---
header:
  frame_id: world_ned
  seq: 141495
  stamp:
    nsecs: 328969717
    secs: 1689867687
temperature: 24.81992932391004
variance: 0.3980102253241062
---
header:
  frame_id: world_ned
  seq: 141496
  stamp:
    nsecs: 332969665
    secs: 1689867687
temperature: 23.545012740272245
variance: 0.9828048178180925
---
header:
  frame_id: world_ned
  seq: 141497
  stamp:
    nsecs: 336969852
    secs: 1689867687
temperature: 26.927596637395144
variance: 1.5495293986851053
---
header:
  frame_id: world_ned
  seq: 141498
  stamp:
    nsecs: 340969800
    secs: 1689867687
temperature: 26.611033309661845
variance: 1.5644286251269068
---
header:
  frame_id: world_ned
  seq: 141499
  stamp:
    nsecs: 344969511
    secs: 1689867687
temperature: 25.080586825769245
variance: 1.5359174948172813
---
header:
  frame_id: world_ned
  seq: 141500
  stamp:
    nsecs: 348969459
    secs: 1689867687
temperature: 25.07306260206891
variance: 1.4877564451795513
---
header:
  frame_id: world_ned
  seq: 141501
  stamp:
    nsecs: 352969169
    secs: 1689867687
temperature: 24.795612911128334
variance: 0.7863170127925454
---
header:
  frame_id: world_ned
  seq: 141502
  stamp:
    nsecs: 356968879
    secs: 1689867687
temperature: 24.371153626511987
variance: 0.5741925996526434
---
header:
  frame_id: world_ned
  seq: 141503
  stamp:
    nsecs: 360969305
    secs: 1689867687
temperature: 23.69105285142588
variance: 0.2743091216773337
---
header:
  frame_id: world_ned
  seq: 141504
  stamp:
    nsecs: 364969491
    secs: 1689867687
temperature: 24.590003231152366
variance: 0.2189595918757671
---
header:
  frame_id: world_ned
  seq: 141505
  stamp:
    nsecs: 368969440
    secs: 1689867687
temperature: 26.32188847433999
variance: 0.7526657624389443
---
header:
  frame_id: world_ned
  seq: 141506
  stamp:
    nsecs: 372969627
    secs: 1689867687
temperature: 23.141161008768037
variance: 1.1630426755905363
---
header:
  frame_id: world_ned
  seq: 141507
  stamp:
    nsecs: 376970052
    secs: 1689867687
temperature: 26.68746728441729
variance: 1.973407094634755
---
header:
  frame_id: world_ned
  seq: 141508
  stamp:
    nsecs: 380970478
    secs: 1689867687
temperature: 23.811148379502608
variance: 1.9182965294591816
---
header:
  frame_id: world_ned
  seq: 141509
  stamp:
    nsecs: 384970188
    secs: 1689867687
temperature: 25.008275394289406
variance: 1.8926946626788985
---
header:
  frame_id: world_ned
  seq: 141510
  stamp:
    nsecs: 388969421
    secs: 1689867687
temperature: 23.40282523802599
variance: 1.7055534350541404
---
header:
  frame_id: world_ned
  seq: 141511
  stamp:
    nsecs: 392968893
    secs: 1689867687
temperature: 23.437324302274966
variance: 1.5692532666090373
---
header:
  frame_id: world_ned
  seq: 141512
  stamp:
    nsecs: 396968364
    secs: 1689867687
temperature: 25.802038376240688
variance: 0.9091172810446378
---
header:
  frame_id: world_ned
  seq: 141513
  stamp:
    nsecs: 400968074
    secs: 1689867687
temperature: 25.942713627655994
variance: 1.2258270708295977
---
header:
  frame_id: world_ned
  seq: 141514
  stamp:
    nsecs: 404967784
    secs: 1689867687
temperature: 24.76304999967063
variance: 1.2070379159305844
---
header:
  frame_id: world_ned
  seq: 141515
  stamp:
    nsecs: 408967733
    secs: 1689867687
temperature: 23.775597854594167
variance: 1.0403852917167664
---
header:
  frame_id: world_ned
  seq: 141516
  stamp:
    nsecs: 412967205
    secs: 1689867687
temperature: 23.4975828117836
variance: 1.0094674428629684
---
header:
  frame_id: world_ned
  seq: 141517
  stamp:
    nsecs: 416966915
    secs: 1689867687
temperature: 24.838213679245982
variance: 0.7548974516238374
---
header:
  frame_id: world_ned
  seq: 141518
  stamp:
    nsecs: 420966625
    secs: 1689867687
temperature: 25.834469542945588
variance: 0.6970524882331126
---
header:
  frame_id: world_ned
  seq: 141519
  stamp:
    nsecs: 424966335
    secs: 1689867687
temperature: 25.65008612480084
variance: 0.9014545898953893
---
header:
  frame_id: world_ned
  seq: 141520
  stamp:
    nsecs: 428966045
    secs: 1689867687
temperature: 23.979764340394897
variance: 0.8310640653622128
---
header:
  frame_id: world_ned
  seq: 141521
  stamp:
    nsecs: 432965278
    secs: 1689867687
temperature: 26.971645970546444
variance: 1.007803242467093
---
header:
  frame_id: world_ned
  seq: 141522
  stamp:
    nsecs: 436964988
    secs: 1689867687
temperature: 26.082800027039568
variance: 0.9486666160017408
---
header:
  frame_id: world_ned
  seq: 141523
  stamp:
    nsecs: 440964698
    secs: 1689867687
temperature: 25.398407482431615
variance: 0.9562904603616078
---
header:
  frame_id: world_ned
  seq: 141524
  stamp:
    nsecs: 444965124
    secs: 1689867687
temperature: 26.095038857256686
variance: 0.9939381653434936
---
header:
  frame_id: world_ned
  seq: 141525
  stamp:
    nsecs: 448965549
    secs: 1689867687
temperature: 26.758660850021695
variance: 0.31120954344975743
---
header:
  frame_id: world_ned
  seq: 141526
  stamp:
    nsecs: 452966690
    secs: 1689867687
temperature: 26.382906546392668
variance: 0.19938683499507912
---
header:
  frame_id: world_ned
  seq: 141527
  stamp:
    nsecs: 456968307
    secs: 1689867687
temperature: 23.41776023713526
variance: 1.4005508006537513
---
header:
  frame_id: world_ned
  seq: 141528
  stamp:
    nsecs: 460968494
    secs: 1689867687
temperature: 25.201970614393336
variance: 1.4233942129834791
---
header:
  frame_id: world_ned
  seq: 141529
  stamp:
    nsecs: 464968681
    secs: 1689867687
temperature: 24.093583548728414
variance: 1.6450039007206363
---
header:
  frame_id: world_ned
  seq: 141530
  stamp:
    nsecs: 468968868
    secs: 1689867687
temperature: 25.04726751019501
variance: 1.0267615816537083
---
header:
  frame_id: world_ned
  seq: 141531
  stamp:
    nsecs: 472968816
    secs: 1689867687
temperature: 26.46968637179367
variance: 1.0819160889794297
---
header:
  frame_id: world_ned
  seq: 141532
  stamp:
    nsecs: 476968288
    secs: 1689867687
temperature: 26.238427641179236
variance: 0.7434061491495496
---
header:
  frame_id: world_ned
  seq: 141533
  stamp:
    nsecs: 480968236
    secs: 1689867687
temperature: 24.580725182634882
variance: 0.8568989164449734
---
header:
  frame_id: world_ned
  seq: 141534
  stamp:
    nsecs: 484968662
    secs: 1689867687
temperature: 26.961394341398613
variance: 0.8050142712400901
---
header:
  frame_id: world_ned
  seq: 141535
  stamp:
    nsecs: 488968610
    secs: 1689867687
temperature: 26.411041619471497
variance: 0.6595142722459667
---
header:
  frame_id: world_ned
  seq: 141536
  stamp:
    nsecs: 492968797
    secs: 1689867687
temperature: 25.4612698947218
variance: 0.6861103493872844
---
header:
  frame_id: world_ned
  seq: 141537
  stamp:
    nsecs: 496968984
    secs: 1689867687
temperature: 26.427155216382225
variance: 0.7150496044175318
---
header:
  frame_id: world_ned
  seq: 141538
  stamp:
    nsecs: 500968933
    secs: 1689867687
temperature: 23.699868512531427
variance: 1.3281028516333246
---
header:
  frame_id: world_ned
  seq: 141539
  stamp:
    nsecs: 504968404
    secs: 1689867687
temperature: 24.646470439153518
variance: 1.1028340291303564
---
header:
  frame_id: world_ned
  seq: 141540
  stamp:
    nsecs: 508967638
    secs: 1689867687
temperature: 24.20828684225741
variance: 0.9259276455584027
---
header:
  frame_id: world_ned
  seq: 141541
  stamp:
    nsecs: 512967348
    secs: 1689867687
temperature: 26.18284034038988
variance: 1.1745196007841447
---
header:
  frame_id: world_ned
  seq: 141542
  stamp:
    nsecs: 516966819
    secs: 1689867687
temperature: 25.485112915929392
variance: 0.7911407809358068
---
header:
  frame_id: world_ned
  seq: 141543
  stamp:
    nsecs: 520965814
    secs: 1689867687
temperature: 23.949326702080654
variance: 0.6868808260643238
---
header:
  frame_id: world_ned
  seq: 141544
  stamp:
    nsecs: 524965286
    secs: 1689867687
temperature: 23.53360419830674
variance: 0.9954045200508259
---
header:
  frame_id: world_ned
  seq: 141545
  stamp:
    nsecs: 528965234
    secs: 1689867687
temperature: 25.92165787211309
variance: 1.1474155204556942
---
header:
  frame_id: world_ned
  seq: 141546
  stamp:
    nsecs: 532965421
    secs: 1689867687
temperature: 26.024061999337796
variance: 1.0772468877584234
---
header:
  frame_id: world_ned
  seq: 141547
  stamp:
    nsecs: 536965608
    secs: 1689867687
temperature: 26.09380431631152
variance: 1.258840651291015
---
header:
  frame_id: world_ned
  seq: 141548
  stamp:
    nsecs: 540966272
    secs: 1689867687
temperature: 24.174718184472603
variance: 1.1628231835494138
---
header:
  frame_id: world_ned
  seq: 141549
  stamp:
    nsecs: 544966697
    secs: 1689867687
temperature: 25.718705841614824
variance: 0.5143510421767898
---
header:
  frame_id: world_ned
  seq: 141550
  stamp:
    nsecs: 548966646
    secs: 1689867687
temperature: 24.429561107956637
variance: 0.6705857944439723
---
header:
  frame_id: world_ned
  seq: 141551
  stamp:
    nsecs: 552966833
    secs: 1689867687
temperature: 26.369453203380193
variance: 0.791341217278421
---
header:
  frame_id: world_ned
  seq: 141552
  stamp:
    nsecs: 556966781
    secs: 1689867687
temperature: 24.387346488192534
variance: 0.7545003938931361
---
header:
  frame_id: world_ned
  seq: 141553
  stamp:
    nsecs: 560967445
    secs: 1689867687
temperature: 25.21123726571851
variance: 0.5776158636076143
---
header:
  frame_id: world_ned
  seq: 141554
  stamp:
    nsecs: 564967632
    secs: 1689867687
temperature: 26.643091715473503
variance: 0.8975271085983418
---
header:
  frame_id: world_ned
  seq: 141555
  stamp:
    nsecs: 568968534
    secs: 1689867687
temperature: 24.644262220845775
variance: 0.8208619441171032
---
header:
  frame_id: world_ned
  seq: 141556
  stamp:
    nsecs: 572968721
    secs: 1689867687
temperature: 26.01518144586175
variance: 0.7108015670064701
---
header:
  frame_id: world_ned
  seq: 141557
  stamp:
    nsecs: 576968669
    secs: 1689867687
temperature: 23.13802726307687
variance: 1.4566976303361314
---
header:
  frame_id: world_ned
  seq: 141558
  stamp:
    nsecs: 580968856
    secs: 1689867687
temperature: 24.912856436269966
variance: 1.4612897170608334
---
header:
  frame_id: world_ned
  seq: 141559
  stamp:
    nsecs: 584968805
    secs: 1689867687
temperature: 26.58585105311414
variance: 1.4258116881502212
---
header:
  frame_id: world_ned
  seq: 141560
  stamp:
    nsecs: 588968276
    secs: 1689867687
temperature: 24.63837878826771
variance: 1.4267938138713159
---
header:
  frame_id: world_ned
  seq: 141561
  stamp:
    nsecs: 592967748
    secs: 1689867687
temperature: 24.258841537815353
variance: 1.2479376521810166
---
header:
  frame_id: world_ned
  seq: 141562
  stamp:
    nsecs: 596967458
    secs: 1689867687
temperature: 26.03154785857752
variance: 0.7718313909486885
---
header:
  frame_id: world_ned
  seq: 141563
  stamp:
    nsecs: 600966930
    secs: 1689867687
temperature: 26.41958531814313
variance: 0.9104823028670911
---
header:
  frame_id: world_ned
  seq: 141564
  stamp:
    nsecs: 604966402
    secs: 1689867687
temperature: 24.526742280984347
variance: 0.7660427138626432
---
header:
  frame_id: world_ned
  seq: 141565
  stamp:
    nsecs: 608965873
    secs: 1689867687
temperature: 26.830235719723298
variance: 1.0642250385884382
---
header:
  frame_id: world_ned
  seq: 141566
  stamp:
    nsecs: 612965345
    secs: 1689867687
temperature: 23.33520876986283
variance: 1.701162975806556
---
header:
  frame_id: world_ned
  seq: 141567
  stamp:
    nsecs: 616965055
    secs: 1689867687
temperature: 23.06761229934908
variance: 2.391985640580804
---
header:
  frame_id: world_ned
  seq: 141568
  stamp:
    nsecs: 620964288
    secs: 1689867687
temperature: 25.769113752859173
variance: 2.0476208384335375
---
header:
  frame_id: world_ned
  seq: 141569
  stamp:
    nsecs: 624963521
    secs: 1689867687
temperature: 24.382599655742077
variance: 2.0612681084586564
---
header:
  frame_id: world_ned
  seq: 141570
  stamp:
    nsecs: 628962993
    secs: 1689867687
temperature: 23.716142642604172
variance: 0.9306723899532168
---
header:
  frame_id: world_ned
  seq: 141571
  stamp:
    nsecs: 632962465
    secs: 1689867687
temperature: 25.555830779897526
variance: 1.0810725870001234
---
header:
  frame_id: world_ned
  seq: 141572
  stamp:
    nsecs: 636961936
    secs: 1689867687
temperature: 25.41678290790569
variance: 0.619714946287149
---
header:
  frame_id: world_ned
  seq: 141573
  stamp:
    nsecs: 640961408
    secs: 1689867687
temperature: 25.032805061296642
variance: 0.4705398867394247
---
header:
  frame_id: world_ned
  seq: 141574
  stamp:
    nsecs: 644960880
    secs: 1689867687
temperature: 23.224240567660118
variance: 0.8882794755807037
---
header:
  frame_id: world_ned
  seq: 141575
  stamp:
    nsecs: 648960590
    secs: 1689867687
temperature: 23.218813208595606
variance: 1.1015242953789943
---
header:
  frame_id: world_ned
  seq: 141576
  stamp:
    nsecs: 652960062
    secs: 1689867687
temperature: 23.605984076444695
variance: 0.8783077217328316
---
header:
  frame_id: world_ned
  seq: 141577
  stamp:
    nsecs: 656960248
    secs: 1689867687
temperature: 25.28269344157194
variance: 0.8105430913458903
---
header:
  frame_id: world_ned
  seq: 141578
  stamp:
    nsecs: 660960435
    secs: 1689867687
temperature: 25.15419531666131
variance: 0.8595096815511998
---
header:
  frame_id: world_ned
  seq: 141579
  stamp:
    nsecs: 664960145
    secs: 1689867687
temperature: 25.431879520161658
variance: 0.8684381032975945
---
header:
  frame_id: world_ned
  seq: 141580
  stamp:
    nsecs: 668960571
    secs: 1689867687
temperature: 23.78521956657059
variance: 0.6207288102471281
---
header:
  frame_id: world_ned
  seq: 141581
  stamp:
    nsecs: 672960758
    secs: 1689867687
temperature: 24.422737058162117
variance: 0.38572966441689294
---
header:
  frame_id: world_ned
  seq: 141582
  stamp:
    nsecs: 676960468
    secs: 1689867687
temperature: 25.759280119761062
variance: 0.5111640625329682
---
header:
  frame_id: world_ned
  seq: 141583
  stamp:
    nsecs: 680960416
    secs: 1689867687
temperature: 26.983320943383582
variance: 1.2246571326583031
---
header:
  frame_id: world_ned
  seq: 141584
  stamp:
    nsecs: 684960842
    secs: 1689867687
temperature: 24.1099166426438
variance: 1.4221018448605354
---
header:
  frame_id: world_ned
  seq: 141585
  stamp:
    nsecs: 688961029
    secs: 1689867687
temperature: 26.622780129277942
variance: 1.3178486502590947
---
header:
  frame_id: world_ned
  seq: 141586
  stamp:
    nsecs: 692960977
    secs: 1689867687
temperature: 24.62080126395249
variance: 1.2324715501962127
---
header:
  frame_id: world_ned
  seq: 141587
  stamp:
    nsecs: 696961164
    secs: 1689867687
temperature: 24.87506980858535
variance: 1.3080269055350857
---
header:
  frame_id: world_ned
  seq: 141588
  stamp:
    nsecs: 700961589
    secs: 1689867687
temperature: 24.032342596273864
variance: 0.8824346281662778
---
header:
  frame_id: world_ned
  seq: 141589
  stamp:
    nsecs: 704961538
    secs: 1689867687
temperature: 26.448575736805765
variance: 1.0631645117963058
---
header:
  frame_id: world_ned
  seq: 141590
  stamp:
    nsecs: 708961009
    secs: 1689867687
temperature: 24.141073160943115
variance: 0.7552507549905073
---
header:
  frame_id: world_ned
  seq: 141591
  stamp:
    nsecs: 712960720
    secs: 1689867687
temperature: 23.97423881932132
variance: 0.8745793440344471
---
header:
  frame_id: world_ned
  seq: 141592
  stamp:
    nsecs: 716960430
    secs: 1689867687
temperature: 26.9921383404994
variance: 1.744810692802107
---
header:
  frame_id: world_ned
  seq: 141593
  stamp:
    nsecs: 720959663
    secs: 1689867687
temperature: 24.200549375685497
variance: 1.6763136342130924
---
header:
  frame_id: world_ned
  seq: 141594
  stamp:
    nsecs: 724959611
    secs: 1689867687
temperature: 25.524533128890326
variance: 1.3334407470859717
---
header:
  frame_id: world_ned
  seq: 141595
  stamp:
    nsecs: 728959798
    secs: 1689867687
temperature: 24.578791069258944
variance: 1.2195734686046213
---
header:
  frame_id: world_ned
  seq: 141596
  stamp:
    nsecs: 732960462
    secs: 1689867687
temperature: 26.873086602595816
variance: 1.312020954773285
---
header:
  frame_id: world_ned
  seq: 141597
  stamp:
    nsecs: 736960649
    secs: 1689867687
temperature: 24.46804607502569
variance: 0.9599790107184644
---
header:
  frame_id: world_ned
  seq: 141598
  stamp:
    nsecs: 740961074
    secs: 1689867687
temperature: 26.1542460566379
variance: 0.8451225877682516
---
header:
  frame_id: world_ned
  seq: 141599
  stamp:
    nsecs: 744961023
    secs: 1689867687
temperature: 23.155031943150245
variance: 1.7389059528760888
---
header:
  frame_id: world_ned
  seq: 141600
  stamp:
    nsecs: 748960971
    secs: 1689867687
temperature: 23.18488189929836
variance: 2.3101929064600077
---
header:
  frame_id: world_ned
  seq: 141601
  stamp:
    nsecs: 752960681
    secs: 1689867687
temperature: 26.025141637501015
variance: 1.7109162474985702
---
header:
  frame_id: world_ned
  seq: 141602
  stamp:
    nsecs: 756960868
    secs: 1689867687
temperature: 24.667291778516137
variance: 1.7069532372341385
---
header:
  frame_id: world_ned
  seq: 141603
  stamp:
    nsecs: 760960578
    secs: 1689867687
temperature: 24.40074148321112
variance: 1.1349421145730931
---
header:
  frame_id: world_ned
  seq: 141604
  stamp:
    nsecs: 764960050
    secs: 1689867687
temperature: 25.819107409756576
variance: 1.0646578164754203
---
header:
  frame_id: world_ned
  seq: 141605
  stamp:
    nsecs: 768959760
    secs: 1689867687
temperature: 23.484034275068186
variance: 0.8833846404147024
---
header:
  frame_id: world_ned
  seq: 141606
  stamp:
    nsecs: 772959947
    secs: 1689867687
temperature: 24.64712868241911
variance: 0.5555977247709208
---
header:
  frame_id: world_ned
  seq: 141607
  stamp:
    nsecs: 776959896
    secs: 1689867687
temperature: 26.930618844556168
variance: 1.4328287835764697
---
header:
  frame_id: world_ned
  seq: 141608
  stamp:
    nsecs: 780959844
    secs: 1689867687
temperature: 23.126390734294134
variance: 2.0268418754132704
---
header:
  frame_id: world_ned
  seq: 141609
  stamp:
    nsecs: 784959554
    secs: 1689867687
temperature: 24.834608644565986
variance: 1.7811692996336153
---
header:
  frame_id: world_ned
  seq: 141610
  stamp:
    nsecs: 788959026
    secs: 1689867687
temperature: 25.74251531312194
variance: 1.5850161147551716
---
header:
  frame_id: world_ned
  seq: 141611
  stamp:
    nsecs: 792958259
    secs: 1689867687
temperature: 24.987414106652004
variance: 1.547855640865489
---
header:
  frame_id: world_ned
  seq: 141612
  stamp:
    nsecs: 796957492
    secs: 1689867687
temperature: 24.55132184373684
variance: 0.7345257805963455
---
header:
  frame_id: world_ned
  seq: 141613
  stamp:
    nsecs: 800956726
    secs: 1689867687
temperature: 24.003231533747705
variance: 0.3237002362067055
---
header:
  frame_id: world_ned
  seq: 141614
  stamp:
    nsecs: 804955959
    secs: 1689867687
temperature: 24.47170056529757
variance: 0.34320623706900805
---
header:
  frame_id: world_ned
  seq: 141615
  stamp:
    nsecs: 808955192
    secs: 1689867687
temperature: 25.34391166060969
variance: 0.2105769018344592
---
header:
  frame_id: world_ned
  seq: 141616
  stamp:
    nsecs: 812954664
    secs: 1689867687
temperature: 26.23868295467636
variance: 0.619194111666714
---
header:
  frame_id: world_ned
  seq: 141617
  stamp:
    nsecs: 816954374
    secs: 1689867687
temperature: 23.1715056295049
variance: 1.1282769471255127
---
header:
  frame_id: world_ned
  seq: 141618
  stamp:
    nsecs: 820953369
    secs: 1689867687
temperature: 24.989911445079834
variance: 1.0304365947500018
---
header:
  frame_id: world_ned
  seq: 141619
  stamp:
    nsecs: 824953079
    secs: 1689867687
temperature: 23.023542965658436
variance: 1.5811448199540248
---
header:
  frame_id: world_ned
  seq: 141620
  stamp:
    nsecs: 828952789
    secs: 1689867687
temperature: 26.290815443453898
variance: 2.023978480080377
---
header:
  frame_id: world_ned
  seq: 141621
  stamp:
    nsecs: 832952260
    secs: 1689867687
temperature: 24.123586458095502
variance: 1.4742626430755619
---
header:
  frame_id: world_ned
  seq: 141622
  stamp:
    nsecs: 836951732
    secs: 1689867687
temperature: 26.347078509002
variance: 1.629055807102553
---
header:
  frame_id: world_ned
  seq: 141623
  stamp:
    nsecs: 840951204
    secs: 1689867687
temperature: 24.237421940135974
variance: 1.709142157797021
---
header:
  frame_id: world_ned
  seq: 141624
  stamp:
    nsecs: 844950914
    secs: 1689867687
temperature: 24.413497979459017
variance: 1.0280841651862775
---
header:
  frame_id: world_ned
  seq: 141625
  stamp:
    nsecs: 848951101
    secs: 1689867687
temperature: 23.116008911032385
variance: 1.1062951882738086
---
header:
  frame_id: world_ned
  seq: 141626
  stamp:
    nsecs: 852951049
    secs: 1689867687
temperature: 26.157634134624267
variance: 1.5047136822901728
---
header:
  frame_id: world_ned
  seq: 141627
  stamp:
    nsecs: 856950759
    secs: 1689867687
temperature: 25.037290592679494
variance: 0.997126306976018
---
header:
  frame_id: world_ned
  seq: 141628
  stamp:
    nsecs: 860950946
    secs: 1689867687
temperature: 23.870744701641154
variance: 1.070699312661851
---
header:
  frame_id: world_ned
  seq: 141629
  stamp:
    nsecs: 864950656
    secs: 1689867687
temperature: 26.213854561772465
variance: 1.5133028265385964
---
header:
  frame_id: world_ned
  seq: 141630
  stamp:
    nsecs: 868950605
    secs: 1689867687
temperature: 24.780368045084355
variance: 0.7827463548131781
---
header:
  frame_id: world_ned
  seq: 141631
  stamp:
    nsecs: 872950553
    secs: 1689867687
temperature: 25.750395984342852
variance: 0.6552383848781453
---
header:
  frame_id: world_ned
  seq: 141632
  stamp:
    nsecs: 876950263
    secs: 1689867687
temperature: 26.829500967228253
variance: 1.102318858800356
---
header:
  frame_id: world_ned
  seq: 141633
  stamp:
    nsecs: 880949974
    secs: 1689867687
temperature: 23.164681684226498
variance: 1.6391112766170504
---
header:
  frame_id: world_ned
  seq: 141634
  stamp:
    nsecs: 884949445
    secs: 1689867687
temperature: 23.394737054042807
variance: 1.9340503834773375
---
header:
  frame_id: world_ned
  seq: 141635
  stamp:
    nsecs: 888949155
    secs: 1689867687
temperature: 26.88286408290263
variance: 2.6383274450815195
---
header:
  frame_id: world_ned
  seq: 141636
  stamp:
    nsecs: 892949104
    secs: 1689867687
temperature: 23.832789219220963
variance: 2.807907299336281
---
header:
  frame_id: world_ned
  seq: 141637
  stamp:
    nsecs: 896949529
    secs: 1689867687
temperature: 23.785836702344277
variance: 1.84474502681875
---
header:
  frame_id: world_ned
  seq: 141638
  stamp:
    nsecs: 900948762
    secs: 1689867687
temperature: 23.691678158132856
variance: 1.6683695360547806
---
header:
  frame_id: world_ned
  seq: 141639
  stamp:
    nsecs: 904948234
    secs: 1689867687
temperature: 24.810589293459387
variance: 1.4664672547275033
---
header:
  frame_id: world_ned
  seq: 141640
  stamp:
    nsecs: 908947467
    secs: 1689867687
temperature: 25.065178593997476
variance: 0.3358389637942239
---
header:
  frame_id: world_ned
  seq: 141641
  stamp:
    nsecs: 912946462
    secs: 1689867687
temperature: 24.245773944071683
variance: 0.29631941735029466
---
header:
  frame_id: world_ned
  seq: 141642
  stamp:
    nsecs: 916945695
    secs: 1689867687
temperature: 26.675501065332778
variance: 1.015142047645109
---
header:
  frame_id: world_ned
  seq: 141643
  stamp:
    nsecs: 920944929
    secs: 1689867687
temperature: 24.174758239939553
variance: 0.8194300711221361
---
header:
  frame_id: world_ned
  seq: 141644
  stamp:
    nsecs: 924944162
    secs: 1689867687
temperature: 26.8686992624394
variance: 1.3458724178005295
---
header:
  frame_id: world_ned
  seq: 141645
  stamp:
    nsecs: 928942918
    secs: 1689867687
temperature: 26.24410109180721
variance: 1.4075373133782183
---
header:
  frame_id: world_ned
  seq: 141646
  stamp:
    nsecs: 932942152
    secs: 1689867687
temperature: 26.04269737711415
variance: 0.9207698721673545
---
header:
  frame_id: world_ned
  seq: 141647
  stamp:
    nsecs: 936942100
    secs: 1689867687
temperature: 26.554480593653395
variance: 0.8904691794223402
---
header:
  frame_id: world_ned
  seq: 141648
  stamp:
    nsecs: 940942049
    secs: 1689867687
temperature: 24.414683026354478
variance: 0.7267234725516928
---
header:
  frame_id: world_ned
  seq: 141649
  stamp:
    nsecs: 944941520
    secs: 1689867687
temperature: 24.99013404129465
variance: 0.6573361084738931
---
header:
  frame_id: world_ned
  seq: 141650
  stamp:
    nsecs: 948941230
    secs: 1689867687
temperature: 25.613483409964893
variance: 0.5709074849153862
---
header:
  frame_id: world_ned
  seq: 141651
  stamp:
    nsecs: 952941179
    secs: 1689867687
temperature: 23.494853900513334
variance: 1.080002998008852
---
header:
  frame_id: world_ned
  seq: 141652
  stamp:
    nsecs: 956940650
    secs: 1689867687
temperature: 25.793634294001265
variance: 0.7036533950955702
---
header:
  frame_id: world_ned
  seq: 141653
  stamp:
    nsecs: 960940599
    secs: 1689867687
temperature: 25.620087678679496
variance: 0.7207639467570583
---
header:
  frame_id: world_ned
  seq: 141654
  stamp:
    nsecs: 964940786
    secs: 1689867687
temperature: 24.547236792178325
variance: 0.7720449860225266
---
header:
  frame_id: world_ned
  seq: 141655
  stamp:
    nsecs: 968940496
    secs: 1689867687
temperature: 25.13626345629051
variance: 0.6940221552877271
---
header:
  frame_id: world_ned
  seq: 141656
  stamp:
    nsecs: 972940683
    secs: 1689867687
temperature: 25.90672988499114
variance: 0.251384129867418
---
header:
  frame_id: world_ned
  seq: 141657
  stamp:
    nsecs: 976940631
    secs: 1689867687
temperature: 25.08995199484834
variance: 0.22003622252955068
---
header:
  frame_id: world_ned
  seq: 141658
  stamp:
    nsecs: 980940818
    secs: 1689867687
temperature: 25.37949687731773
variance: 0.1946493316982878
---
header:
  frame_id: world_ned
  seq: 141659
  stamp:
    nsecs: 984940767
    secs: 1689867687
temperature: 26.911307654717906
variance: 0.460304074831563
---
header:
  frame_id: world_ned
  seq: 141660
  stamp:
    nsecs: 988940477
    secs: 1689867687
temperature: 26.450938694052642
variance: 0.4484107747184593
---
header:
  frame_id: world_ned
  seq: 141661
  stamp:
    nsecs: 992939949
    secs: 1689867687
temperature: 25.82498728015996
variance: 0.45081898307509205
---
header:
  frame_id: world_ned
  seq: 141662
  stamp:
    nsecs: 996939420
    secs: 1689867687
temperature: 24.083985174861862
variance: 0.9512960200428602
---
header:
  frame_id: world_ned
  seq: 141663
  stamp:
    nsecs: 938415
    secs: 1689867688
temperature: 26.447704893055977
variance: 0.9840417006447748
---
header:
  frame_id: world_ned
  seq: 141664
  stamp:
    nsecs: 4937648
    secs: 1689867688
temperature: 25.254031997016668
variance: 0.7821108471923189
---
header:
  frame_id: world_ned
  seq: 141665
  stamp:
    nsecs: 8936405
    secs: 1689867688
temperature: 24.808260865101815
variance: 0.662827497910337
---
header:
  frame_id: world_ned
  seq: 141666
  stamp:
    nsecs: 12935400
    secs: 1689867688
temperature: 23.953987170813715
variance: 0.8179010802976091
---
header:
  frame_id: world_ned
  seq: 141667
  stamp:
    nsecs: 16934871
    secs: 1689867688
temperature: 26.69824615971236
variance: 1.0480559625888273
---
header:
  frame_id: world_ned
  seq: 141668
  stamp:
    nsecs: 20934104
    secs: 1689867688
temperature: 24.772662685177437
variance: 0.8167381326671806
---
header:
  frame_id: world_ned
  seq: 141669
  stamp:
    nsecs: 24933099
    secs: 1689867688
temperature: 25.29973206457528
variance: 0.8199348386550215
---
header:
  frame_id: world_ned
  seq: 141670
  stamp:
    nsecs: 28932332
    secs: 1689867688
temperature: 25.699731548450156
variance: 0.8407137185102507
---
header:
  frame_id: world_ned
  seq: 141671
  stamp:
    nsecs: 32931566
    secs: 1689867688
temperature: 23.99888988634067
variance: 0.817132183308171
---
header:
  frame_id: world_ned
  seq: 141672
  stamp:
    nsecs: 36930799
    secs: 1689867688
temperature: 23.261667595895617
variance: 0.7762200380845276
---
header:
  frame_id: world_ned
  seq: 141673
  stamp:
    nsecs: 40930032
    secs: 1689867688
temperature: 26.49251277605935
variance: 1.363766209398611
---
header:
  frame_id: world_ned
  seq: 141674
  stamp:
    nsecs: 44930219
    secs: 1689867688
temperature: 23.082957852707988
variance: 1.8403588273452123
---
header:
  frame_id: world_ned
  seq: 141675
  stamp:
    nsecs: 48930168
    secs: 1689867688
temperature: 26.96992227238667
variance: 2.7044217699769146
---
header:
  frame_id: world_ned
  seq: 141676
  stamp:
    nsecs: 52929401
    secs: 1689867688
temperature: 26.422063604227514
variance: 2.905030794159843
---
header:
  frame_id: world_ned
  seq: 141677
  stamp:
    nsecs: 56929349
    secs: 1689867688
temperature: 25.002408434225007
variance: 2.0082979767125115
---
header:
  frame_id: world_ned
  seq: 141678
  stamp:
    nsecs: 60929536
    secs: 1689867688
temperature: 23.645150792865746
variance: 2.2821060055938647
---
header:
  frame_id: world_ned
  seq: 141679
  stamp:
    nsecs: 64929008
    secs: 1689867688
temperature: 25.97400366395568
variance: 1.374173746145333
---
header:
  frame_id: world_ned
  seq: 141680
  stamp:
    nsecs: 68928956
    secs: 1689867688
temperature: 25.31575707292511
variance: 0.9073375996999371
---
header:
  frame_id: world_ned
  seq: 141681
  stamp:
    nsecs: 72928428
    secs: 1689867688
temperature: 25.472284297443665
variance: 0.6147010337094029
---
header:
  frame_id: world_ned
  seq: 141682
  stamp:
    nsecs: 76927900
    secs: 1689867688
temperature: 24.860120318302645
variance: 0.6224658478418043
---
header:
  frame_id: world_ned
  seq: 141683
  stamp:
    nsecs: 80927610
    secs: 1689867688
temperature: 26.89286376984898
variance: 0.48057035086016653
---
header:
  frame_id: world_ned
  seq: 141684
  stamp:
    nsecs: 84927082
    secs: 1689867688
temperature: 25.514767046968377
variance: 0.4645332217194005
---
header:
  frame_id: world_ned
  seq: 141685
  stamp:
    nsecs: 88927030
    secs: 1689867688
temperature: 24.44120778838838
variance: 0.6902442969565998
---
header:
  frame_id: world_ned
  seq: 141686
  stamp:
    nsecs: 92927455
    secs: 1689867688
temperature: 24.643585424036818
variance: 0.7881779065009431
---
header:
  frame_id: world_ned
  seq: 141687
  stamp:
    nsecs: 96927881
    secs: 1689867688
temperature: 24.205904830153393
variance: 0.9640505898337833
---
header:
  frame_id: world_ned
  seq: 141688
  stamp:
    nsecs: 100927591
    secs: 1689867688
temperature: 26.24214410983984
variance: 0.5754641999143258
---
header:
  frame_id: world_ned
  seq: 141689
  stamp:
    nsecs: 104926586
    secs: 1689867688
temperature: 26.445319144416874
variance: 0.9020753477585917
---
header:
  frame_id: world_ned
  seq: 141690
  stamp:
    nsecs: 108926057
    secs: 1689867688
temperature: 26.865588665092066
variance: 1.110890065267633
---
header:
  frame_id: world_ned
  seq: 141691
  stamp:
    nsecs: 112925052
    secs: 1689867688
temperature: 24.57890731116227
variance: 1.138385876003793
---
header:
  frame_id: world_ned
  seq: 141692
  stamp:
    nsecs: 116924047
    secs: 1689867688
temperature: 25.77087267369822
variance: 0.615260416321701
---
header:
  frame_id: world_ned
  seq: 141693
  stamp:
    nsecs: 120923519
    secs: 1689867688
temperature: 26.034401666595205
variance: 0.6004292053495714
---
header:
  frame_id: world_ned
  seq: 141694
  stamp:
    nsecs: 124922752
    secs: 1689867688
temperature: 26.588562533681
variance: 0.6327219152633227
---
header:
  frame_id: world_ned
  seq: 141695
  stamp:
    nsecs: 128922700
    secs: 1689867688
temperature: 25.79593389548638
variance: 0.4316010667655058
---
header:
  frame_id: world_ned
  seq: 141696
  stamp:
    nsecs: 132922172
    secs: 1689867688
temperature: 24.313786419276543
variance: 0.5674359319454761
---
header:
  frame_id: world_ned
  seq: 141697
  stamp:
    nsecs: 136921644
    secs: 1689867688
temperature: 26.940757699962585
variance: 0.8192491196390815
---
header:
  frame_id: world_ned
  seq: 141698
  stamp:
    nsecs: 140921831
    secs: 1689867688
temperature: 24.470151002285647
variance: 1.1483593516664605
---
header:
  frame_id: world_ned
  seq: 141699
  stamp:
    nsecs: 144921302
    secs: 1689867688
temperature: 26.471107679265298
variance: 1.1051480733440608
---
header:
  frame_id: world_ned
  seq: 141700
  stamp:
    nsecs: 148921012
    secs: 1689867688
temperature: 26.652281244003987
variance: 1.29016208776665
---
header:
  frame_id: world_ned
  seq: 141701
  stamp:
    nsecs: 152920484
    secs: 1689867688
temperature: 25.99278130038077
variance: 0.7634731886775206
---
header:
  frame_id: world_ned
  seq: 141702
  stamp:
    nsecs: 156920194
    secs: 1689867688
temperature: 26.472940646500795
variance: 0.6421747586763165
---
header:
  frame_id: world_ned
  seq: 141703
  stamp:
    nsecs: 160919666
    secs: 1689867688
temperature: 23.657706635330438
variance: 1.2488039327288156
---
header:
  frame_id: world_ned
  seq: 141704
  stamp:
    nsecs: 164919614
    secs: 1689867688
temperature: 25.829677376074773
variance: 1.1551109634610253
---
header:
  frame_id: world_ned
  seq: 141705
  stamp:
    nsecs: 168919563
    secs: 1689867688
temperature: 26.738020063180517
variance: 1.1882232724907165
---
header:
  frame_id: world_ned
  seq: 141706
  stamp:
    nsecs: 172919511
    secs: 1689867688
temperature: 23.258348906570873
variance: 2.106135981028253
---
header:
  frame_id: world_ned
  seq: 141707
  stamp:
    nsecs: 176919460
    secs: 1689867688
temperature: 25.556068616647195
variance: 1.7706146901913464
---
header:
  frame_id: world_ned
  seq: 141708
  stamp:
    nsecs: 180919647
    secs: 1689867688
temperature: 26.636243524264614
variance: 1.5813668811712769
---
header:
  frame_id: world_ned
  seq: 141709
  stamp:
    nsecs: 184919595
    secs: 1689867688
temperature: 24.886934278699705
variance: 1.6383430913599646
---
header:
  frame_id: world_ned
  seq: 141710
  stamp:
    nsecs: 188919305
    secs: 1689867688
temperature: 24.427928631794053
variance: 1.2697814826316514
---
header:
  frame_id: world_ned
  seq: 141711
  stamp:
    nsecs: 192918777
    secs: 1689867688
temperature: 24.087831031596977
variance: 0.8175600927854839
---
header:
  frame_id: world_ned
  seq: 141712
  stamp:
    nsecs: 196918010
    secs: 1689867688
temperature: 23.512720357102047
variance: 1.1283712658755458
---
header:
  frame_id: world_ned
  seq: 141713
  stamp:
    nsecs: 200917243
    secs: 1689867688
temperature: 26.542830919460382
variance: 1.0578056311264157
---
header:
  frame_id: world_ned
  seq: 141714
  stamp:
    nsecs: 204916477
    secs: 1689867688
temperature: 24.801687377206612
variance: 1.0523093721252978
---
header:
  frame_id: world_ned
  seq: 141715
  stamp:
    nsecs: 208916187
    secs: 1689867688
temperature: 25.340151393398905
variance: 1.0954458589362155
---
header:
  frame_id: world_ned
  seq: 141716
  stamp:
    nsecs: 212915658
    secs: 1689867688
temperature: 23.892020380327935
variance: 1.161828602542009
---
header:
  frame_id: world_ned
  seq: 141717
  stamp:
    nsecs: 216915369
    secs: 1689867688
temperature: 25.925813323182904
variance: 0.8337207940566161
---
header:
  frame_id: world_ned
  seq: 141718
  stamp:
    nsecs: 220915079
    secs: 1689867688
temperature: 24.130323811768093
variance: 0.5660990668437591
---
header:
  frame_id: world_ned
  seq: 141719
  stamp:
    nsecs: 224914550
    secs: 1689867688
temperature: 26.140433479617823
variance: 0.8441226608258686
---
header:
  frame_id: world_ned
  seq: 141720
  stamp:
    nsecs: 228914022
    secs: 1689867688
temperature: 23.484746015828367
variance: 1.206119104071416
---
header:
  frame_id: world_ned
  seq: 141721
  stamp:
    nsecs: 232913494
    secs: 1689867688
temperature: 23.44638675620459
variance: 1.384533065865956
---
header:
  frame_id: world_ned
  seq: 141722
  stamp:
    nsecs: 236912727
    secs: 1689867688
temperature: 23.99765722966466
variance: 0.9765273630794162
---
header:
  frame_id: world_ned
  seq: 141723
  stamp:
    nsecs: 240912199
    secs: 1689867688
temperature: 25.315961440227184
variance: 1.1494736702652135
---
header:
  frame_id: world_ned
  seq: 141724
  stamp:
    nsecs: 244911909
    secs: 1689867688
temperature: 26.42153264727427
variance: 1.3491480971199945
---
header:
  frame_id: world_ned
  seq: 141725
  stamp:
    nsecs: 248911619
    secs: 1689867688
temperature: 25.736805760981795
variance: 1.216108204611072
---
header:
  frame_id: world_ned
  seq: 141726
  stamp:
    nsecs: 252911806
    secs: 1689867688
temperature: 24.43254034740117
variance: 0.7653095592798234
---
header:
  frame_id: world_ned
  seq: 141727
  stamp:
    nsecs: 256912469
    secs: 1689867688
temperature: 23.28723028476049
variance: 1.1823054625741318
---
header:
  frame_id: world_ned
  seq: 141728
  stamp:
    nsecs: 260912656
    secs: 1689867688
temperature: 23.88885768935796
variance: 1.349958275370938
---
header:
  frame_id: world_ned
  seq: 141729
  stamp:
    nsecs: 264912605
    secs: 1689867688
temperature: 23.27746606734359
variance: 0.8336866096382989
---
header:
  frame_id: world_ned
  seq: 141730
  stamp:
    nsecs: 268912553
    secs: 1689867688
temperature: 26.398837579174106
variance: 1.330750282981673
---
header:
  frame_id: world_ned
  seq: 141731
  stamp:
    nsecs: 272912502
    secs: 1689867688
temperature: 23.793928023305302
variance: 1.3511580276850463
---
header:
  frame_id: world_ned
  seq: 141732
  stamp:
    nsecs: 276912450
    secs: 1689867688
temperature: 24.31373612972958
variance: 1.174011324743896
---
header:
  frame_id: world_ned
  seq: 141733
  stamp:
    nsecs: 280912399
    secs: 1689867688
temperature: 26.05537719969559
variance: 1.5387668924304978
---
header:
  frame_id: world_ned
  seq: 141734
  stamp:
    nsecs: 284912824
    secs: 1689867688
temperature: 24.02835454957143
variance: 1.1813296961103323
---
header:
  frame_id: world_ned
  seq: 141735
  stamp:
    nsecs: 288912773
    secs: 1689867688
temperature: 25.825209567045135
variance: 0.8942082993083659
---
header:
  frame_id: world_ned
  seq: 141736
  stamp:
    nsecs: 292912721
    secs: 1689867688
temperature: 23.699295386916685
variance: 0.9338497640154966
---
header:
  frame_id: world_ned
  seq: 141737
  stamp:
    nsecs: 296912670
    secs: 1689867688
temperature: 24.153910905301586
variance: 0.9680260565138159
---
header:
  frame_id: world_ned
  seq: 141738
  stamp:
    nsecs: 300913095
    secs: 1689867688
temperature: 24.902044653753627
variance: 0.5797614252845286
---
header:
  frame_id: world_ned
  seq: 141739
  stamp:
    nsecs: 304913043
    secs: 1689867688
temperature: 26.736132503481947
variance: 1.2184750336184347
---
header:
  frame_id: world_ned
  seq: 141740
  stamp:
    nsecs: 308912515
    secs: 1689867688
temperature: 26.456895789535643
variance: 1.4748298409431053
---
header:
  frame_id: world_ned
  seq: 141741
  stamp:
    nsecs: 312912225
    secs: 1689867688
temperature: 23.23381414811813
variance: 1.7869914197658026
---
header:
  frame_id: world_ned
  seq: 141742
  stamp:
    nsecs: 316911697
    secs: 1689867688
temperature: 24.84288270654042
variance: 1.6031572149709237
---
header:
  frame_id: world_ned
  seq: 141743
  stamp:
    nsecs: 320911407
    secs: 1689867688
temperature: 25.28849764880476
variance: 1.5756837910352492
---
header:
  frame_id: world_ned
  seq: 141744
  stamp:
    nsecs: 324911832
    secs: 1689867688
temperature: 26.597376737919554
variance: 1.4997019309395798
---
header:
  frame_id: world_ned
  seq: 141745
  stamp:
    nsecs: 328911781
    secs: 1689867688
temperature: 24.068069882169116
variance: 1.2919008123509412
---
header:
  frame_id: world_ned
  seq: 141746
  stamp:
    nsecs: 332912206
    secs: 1689867688
temperature: 24.37517154541093
variance: 0.7825033648132695
---
header:
  frame_id: world_ned
  seq: 141747
  stamp:
    nsecs: 336912155
    secs: 1689867688
temperature: 24.472758587722378
variance: 0.832776086940578
---
header:
  frame_id: world_ned
  seq: 141748
  stamp:
    nsecs: 340912103
    secs: 1689867688
temperature: 26.439036598387997
variance: 1.195581676977315
---
header:
  frame_id: world_ned
  seq: 141749
  stamp:
    nsecs: 344912052
    secs: 1689867688
temperature: 23.43857200228371
variance: 1.014427796931327
---
header:
  frame_id: world_ned
  seq: 141750
  stamp:
    nsecs: 348912477
    secs: 1689867688
temperature: 23.67271981448497
variance: 1.11702776051773
---
header:
  frame_id: world_ned
  seq: 141751
  stamp:
    nsecs: 352912664
    secs: 1689867688
temperature: 26.952063398647397
variance: 2.0717935866127357
---
header:
  frame_id: world_ned
  seq: 141752
  stamp:
    nsecs: 356912851
    secs: 1689867688
temperature: 23.998231460206107
variance: 2.206954542236152
---
header:
  frame_id: world_ned
  seq: 141753
  stamp:
    nsecs: 360913276
    secs: 1689867688
temperature: 26.230084683645373
variance: 2.0853168477710584
---
header:
  frame_id: world_ned
  seq: 141754
  stamp:
    nsecs: 364913225
    secs: 1689867688
temperature: 26.014695725013315
variance: 1.6841496920306203
---
header:
  frame_id: world_ned
  seq: 141755
  stamp:
    nsecs: 368913412
    secs: 1689867688
temperature: 25.769186540473207
variance: 0.9610762121107314
---
header:
  frame_id: world_ned
  seq: 141756
  stamp:
    nsecs: 372913837
    secs: 1689867688
temperature: 23.908041249118945
variance: 1.0321819184982972
---
header:
  frame_id: world_ned
  seq: 141757
  stamp:
    nsecs: 376914024
    secs: 1689867688
temperature: 25.13143995349344
variance: 0.7001368379928092
---
header:
  frame_id: world_ned
  seq: 141758
  stamp:
    nsecs: 380913972
    secs: 1689867688
temperature: 23.38880895755969
variance: 1.0605415682533745
---
header:
  frame_id: world_ned
  seq: 141759
  stamp:
    nsecs: 384913921
    secs: 1689867688
temperature: 24.715343379256403
variance: 0.72140005444919
---
header:
  frame_id: world_ned
  seq: 141760
  stamp:
    nsecs: 388913869
    secs: 1689867688
temperature: 23.694559346777925
variance: 0.42533279011468217
---
header:
  frame_id: world_ned
  seq: 141761
  stamp:
    nsecs: 392912864
    secs: 1689867688
temperature: 23.776783187509334
variance: 0.44171907554803286
---
header:
  frame_id: world_ned
  seq: 141762
  stamp:
    nsecs: 396911859
    secs: 1689867688
temperature: 26.581558494560554
variance: 1.352451758999564
---
header:
  frame_id: world_ned
  seq: 141763
  stamp:
    nsecs: 400911092
    secs: 1689867688
temperature: 24.434758802869432
variance: 1.0912898903747807
---
header:
  frame_id: world_ned
  seq: 141764
  stamp:
    nsecs: 404910087
    secs: 1689867688
temperature: 25.83758724347454
variance: 1.3263507281237552
---
header:
  frame_id: world_ned
  seq: 141765
  stamp:
    nsecs: 408909320
    secs: 1689867688
temperature: 25.64133940085139
variance: 1.0212684534016816
---
header:
  frame_id: world_ned
  seq: 141766
  stamp:
    nsecs: 412908315
    secs: 1689867688
temperature: 26.177764497907717
variance: 0.5245249026259405
---
header:
  frame_id: world_ned
  seq: 141767
  stamp:
    nsecs: 416907787
    secs: 1689867688
temperature: 23.433217003941323
variance: 1.0438498632471613
---
header:
  frame_id: world_ned
  seq: 141768
  stamp:
    nsecs: 420907020
    secs: 1689867688
temperature: 23.84679203730871
variance: 1.2567788037293035
---
header:
  frame_id: world_ned
  seq: 141769
  stamp:
    nsecs: 424906015
    secs: 1689867688
temperature: 23.592667121489082
variance: 1.299630595121566
---
header:
  frame_id: world_ned
  seq: 141770
  stamp:
    nsecs: 428905248
    secs: 1689867688
temperature: 26.061849234504912
variance: 1.5134493028504532
---
header:
  frame_id: world_ned
  seq: 141771
  stamp:
    nsecs: 432904481
    secs: 1689867688
temperature: 24.28288860474848
variance: 0.9090929152889615
---
header:
  frame_id: world_ned
  seq: 141772
  stamp:
    nsecs: 436903715
    secs: 1689867688
temperature: 23.72646299923902
variance: 0.827808949515157
---
header:
  frame_id: world_ned
  seq: 141773
  stamp:
    nsecs: 440902948
    secs: 1689867688
temperature: 25.90723531399666
variance: 1.1317963234997568
---
header:
  frame_id: world_ned
  seq: 141774
  stamp:
    nsecs: 444902896
    secs: 1689867688
temperature: 26.384111254599524
variance: 1.1262403670168895
---
header:
  frame_id: world_ned
  seq: 141775
  stamp:
    nsecs: 448903322
    secs: 1689867688
temperature: 24.003700545048055
variance: 1.154165100141924
---
header:
  frame_id: world_ned
  seq: 141776
  stamp:
    nsecs: 452903270
    secs: 1689867688
temperature: 23.00056117474035
variance: 1.713732838804722
---
header:
  frame_id: world_ned
  seq: 141777
  stamp:
    nsecs: 456902980
    secs: 1689867688
temperature: 26.772978622633204
variance: 2.1288571397999076
---
header:
  frame_id: world_ned
  seq: 141778
  stamp:
    nsecs: 460903406
    secs: 1689867688
temperature: 23.571378592749426
variance: 2.35386999043749
---
header:
  frame_id: world_ned
  seq: 141779
  stamp:
    nsecs: 464903593
    secs: 1689867688
temperature: 23.824891207495558
variance: 1.7254512580056662
---
header:
  frame_id: world_ned
  seq: 141780
  stamp:
    nsecs: 468904018
    secs: 1689867688
temperature: 26.496076758186447
variance: 2.4890644870012175
---
header:
  frame_id: world_ned
  seq: 141781
  stamp:
    nsecs: 472903966
    secs: 1689867688
temperature: 23.555173572393105
variance: 2.153907525882995
---
header:
  frame_id: world_ned
  seq: 141782
  stamp:
    nsecs: 476903915
    secs: 1689867688
temperature: 25.26464738719404
variance: 1.3541623236399207
---
header:
  frame_id: world_ned
  seq: 141783
  stamp:
    nsecs: 480904102
    secs: 1689867688
temperature: 26.631252369665262
variance: 1.6636925454777163
---
header:
  frame_id: world_ned
  seq: 141784
  stamp:
    nsecs: 484904289
    secs: 1689867688
temperature: 24.168566845037105
variance: 1.499821568374595
---
header:
  frame_id: world_ned
  seq: 141785
  stamp:
    nsecs: 488903999
    secs: 1689867688
temperature: 26.744088465952544
variance: 1.6359440892790853
---
header:
  frame_id: world_ned
  seq: 141786
  stamp:
    nsecs: 492903947
    secs: 1689867688
temperature: 26.899734931694972
variance: 1.1279084136136908
---
header:
  frame_id: world_ned
  seq: 141787
  stamp:
